[
  {
    "cep": "01238010",
    "uf": "SP",
    "cidade": "São Paulo",
    "bairro": "Higienópolis",
    "logradouro": "Rua Dona Veridiana",
    "lat": -23.5417015,
    "lng": -46.650936,
    "city_source": "brasilapi",
    "geo_source": "brasilapi",
    "updated_at": "2026-02-23T23:49:03.857Z"
  },
  {
    "cep": "02552110",
    "uf": "SP",
    "cidade": "São Paulo",
    "bairro": "Vila Bandeirantes",
    "logradouro": "Rua Dias de Oliveira",
    "lat": -23.4963115,
    "lng": -46.6627535,
    "city_source": "brasilapi",
    "geo_source": "brasilapi",
    "updated_at": "2026-02-23T23:49:03.860Z"
  },
  {
    "cep": "02634030",
    "uf": "SP",
    "cidade": "São Paulo",
    "bairro": "Jardim Peri",
    "logradouro": "Rua Marina Eston",
    "lat": -23.4586058,
    "lng": -46.6510956,
    "city_source": "brasilapi",
    "geo_source": "brasilapi",
    "updated_at": "2026-02-23T23:49:04.040Z"
  },
  {
    "cep": "02860001",
    "uf": "SP",
    "cidade": "São Paulo",
    "bairro": "Vila Souza",
    "logradouro": "Avenida Deputado Cantídio Sampaio",
    "lat": -23.4722999,
    "lng": -46.6731251,
    "city_source": "brasilapi",
    "geo_source": "brasilapi",
    "updated_at": "2026-02-23T23:49:03.869Z"
  },
  {
    "cep": "02995250",
    "uf": "SP",
    "cidade": "São Paulo",
    "bairro": "Parque Nações Unidas",
    "logradouro": "Rua Jair da Rosa Pinto",
    "lat": -23.5475,
    "lng": -46.63611,
    "city_source": "brasilapi",
    "geo_source": "open-meteo",
    "updated_at": "2026-02-23T23:49:04.791Z"
  },
  {
    "cep": "03557010",
    "uf": "SP",
    "cidade": "São Paulo",
    "bairro": "Jardim Hercilia",
    "logradouro": "Rua Coroatá",
    "lat": -23.5383495,
    "lng": -46.5025688,
    "city_source": "brasilapi",
    "geo_source": "brasilapi",
    "updated_at": "2026-02-23T23:49:04.061Z"
  },
  {
    "cep": "04455250",
    "uf": "SP",
    "cidade": "São Paulo",
    "bairro": "Vila Campo Grande",
    "logradouro": "Rua João Bressane",
    "lat": -23.5475,
    "lng": -46.63611,
    "city_source": "brasilapi",
    "geo_source": "open-meteo",
    "updated_at": "2026-02-23T23:49:04.800Z"
  },
  {
    "cep": "04842310",
    "uf": "SP",
    "cidade": "São Paulo",
    "bairro": "Parque Grajaú",
    "logradouro": "Rua João Teixeira de Oliveira",
    "lat": -23.7468471,
    "lng": -46.6857852,
    "city_source": "brasilapi",
    "geo_source": "brasilapi",
    "updated_at": "2026-02-23T23:49:04.228Z"
  },
  {
    "cep": "05069020",
    "uf": "SP",
    "cidade": "São Paulo",
    "bairro": "Lapa de Baixo",
    "logradouro": "Rua Engenheiro Fox",
    "lat": -23.5475,
    "lng": -46.63611,
    "city_source": "brasilapi",
    "geo_source": "open-meteo",
    "updated_at": "2026-02-23T23:49:04.970Z"
  },
  {
    "cep": "05182030",
    "uf": "SP",
    "cidade": "São Paulo",
    "bairro": "Cidade D'Abril",
    "logradouro": "Rua Fernandez Cabalero",
    "lat": -23.5475,
    "lng": -46.63611,
    "city_source": "brasilapi",
    "geo_source": "open-meteo",
    "updated_at": "2026-02-23T23:49:05.147Z"
  },
  {
    "cep": "05359001",
    "uf": "SP",
    "cidade": "São Paulo",
    "bairro": "Vila Butantã",
    "logradouro": "Avenida Nossa Senhora da Assunção",
    "lat": -23.5738625,
    "lng": -46.7420765,
    "city_source": "brasilapi",
    "geo_source": "brasilapi",
    "updated_at": "2026-02-23T23:49:04.982Z"
  },
  {
    "cep": "05510021",
    "uf": "SP",
    "cidade": "São Paulo",
    "bairro": "Butantã",
    "logradouro": "Rua M.M.D.C.",
    "lat": -23.5726605,
    "lng": -46.7076115,
    "city_source": "brasilapi",
    "geo_source": "brasilapi",
    "updated_at": "2026-02-23T23:49:04.993Z"
  },
  {
    "cep": "06147110",
    "uf": "SP",
    "cidade": "Osasco",
    "bairro": "Santa Maria",
    "logradouro": "Rua Capitão Carlos Lamarca",
    "lat": -23.5325,
    "lng": -46.79167,
    "city_source": "brasilapi",
    "geo_source": "open-meteo",
    "updated_at": "2026-02-23T23:49:05.363Z"
  },
  {
    "cep": "07054170",
    "uf": "SP",
    "cidade": "Guarulhos",
    "bairro": "Jardim Vila Galvão",
    "logradouro": "Rua Braúlio Muniz",
    "lat": -23.46278,
    "lng": -46.53333,
    "city_source": "brasilapi",
    "geo_source": "open-meteo",
    "updated_at": "2026-02-23T23:49:05.361Z"
  },
  {
    "cep": "09220200",
    "uf": "SP",
    "cidade": "Santo André",
    "bairro": "Vila Metalúrgica",
    "logradouro": "Rua Gibraltar",
    "lat": -23.66389,
    "lng": -46.53833,
    "city_source": "brasilapi",
    "geo_source": "open-meteo",
    "updated_at": "2026-02-23T23:49:05.402Z"
  },
  {
    "cep": "09332110",
    "uf": "SP",
    "cidade": "Mauá",
    "bairro": "Chácara Maria Aparecida",
    "logradouro": "Rua Flor de Lotus",
    "lat": -23.66778,
    "lng": -46.46139,
    "city_source": "brasilapi",
    "geo_source": "open-meteo",
    "updated_at": "2026-02-23T23:49:05.532Z"
  },
  {
    "cep": "11320010",
    "uf": "SP",
    "cidade": "São Vicente",
    "bairro": "Centro",
    "logradouro": "Avenida Quintino Bocaiuva",
    "lat": -23.966902,
    "lng": -46.3751959,
    "city_source": "brasilapi",
    "geo_source": "brasilapi",
    "updated_at": "2026-02-23T23:49:05.558Z"
  },
  {
    "cep": "12215830",
    "uf": "SP",
    "cidade": "São José dos Campos",
    "bairro": "Jardim São José Centro",
    "logradouro": "Praça Platina",
    "lat": -23.1910418,
    "lng": -45.8719568,
    "city_source": "brasilapi",
    "geo_source": "brasilapi",
    "updated_at": "2026-02-23T23:49:05.622Z"
  },
  {
    "cep": "12225600",
    "uf": "SP",
    "cidade": "São José dos Campos",
    "bairro": "Parque Novo Horizonte",
    "logradouro": "Rua dos Ferreiros",
    "lat": -23.1943909,
    "lng": -45.7877698,
    "city_source": "brasilapi",
    "geo_source": "brasilapi",
    "updated_at": "2026-02-23T23:49:05.615Z"
  },
  {
    "cep": "12226837",
    "uf": "SP",
    "cidade": "São José dos Campos",
    "bairro": "Jardim Santa Hermínia",
    "logradouro": "Rua Francisco Cunha Laranjeira",
    "lat": -23.2110097,
    "lng": -45.7813207,
    "city_source": "brasilapi",
    "geo_source": "brasilapi",
    "updated_at": "2026-02-23T23:49:05.726Z"
  },
  {
    "cep": "12227710",
    "uf": "SP",
    "cidade": "São José dos Campos",
    "bairro": "Jardim Uirá",
    "logradouro": "Rua das Seriemas",
    "lat": -23.17944,
    "lng": -45.88694,
    "city_source": "brasilapi",
    "geo_source": "open-meteo",
    "updated_at": "2026-02-23T23:49:05.937Z"
  },
  {
    "cep": "12246023",
    "uf": "SP",
    "cidade": "São José dos Campos",
    "bairro": "Parque Residencial Aquarius",
    "logradouro": "Rua Célio José dos Santos",
    "lat": -23.2212052,
    "lng": -45.9089085,
    "city_source": "brasilapi",
    "geo_source": "brasilapi",
    "updated_at": "2026-02-23T23:49:05.818Z"
  },
  {
    "cep": "12248899",
    "uf": "SP",
    "cidade": "São José dos Campos",
    "bairro": "Área Rural de São José dos Campos",
    "logradouro": "Área Rural",
    "lat": -23.17944,
    "lng": -45.88694,
    "city_source": "brasilapi",
    "geo_source": "open-meteo",
    "updated_at": "2026-02-23T23:49:05.995Z"
  },
  {
    "cep": "13178574",
    "uf": "SP",
    "cidade": "Sumaré",
    "bairro": "Residencial Real Parque Sumaré",
    "logradouro": "Avenida Cabo Pedro Hoffman",
    "lat": -22.8292704,
    "lng": -47.2189548,
    "city_source": "brasilapi",
    "geo_source": "brasilapi",
    "updated_at": "2026-02-23T23:49:05.944Z"
  },
  {
    "cep": "14807197",
    "uf": "SP",
    "cidade": "Araraquara",
    "bairro": "Jardim Nova Época",
    "logradouro": "Avenida Júlio Prestes de Albuquerque",
    "lat": -21.79444,
    "lng": -48.17556,
    "city_source": "brasilapi",
    "geo_source": "open-meteo",
    "updated_at": "2026-02-23T23:49:06.191Z"
  },
  {
    "cep": "18526058",
    "uf": "SP",
    "cidade": "Cerquilho",
    "bairro": "Jardim Bella Vista",
    "logradouro": "Rua Monteiro Lobato",
    "lat": -23.165,
    "lng": -47.74361,
    "city_source": "brasilapi",
    "geo_source": "open-meteo",
    "updated_at": "2026-02-23T23:49:06.310Z"
  },
  {
    "cep": "18550041",
    "uf": "SP",
    "cidade": "Boituva",
    "bairro": "Centro",
    "logradouro": "Rua Barão do Rio Branco",
    "lat": -23.2868631,
    "lng": -47.6771704,
    "city_source": "brasilapi",
    "geo_source": "brasilapi",
    "updated_at": "2026-02-23T23:49:06.130Z"
  },
  {
    "cep": "19470000",
    "uf": "SP",
    "cidade": "Presidente Epitácio",
    "bairro": null,
    "logradouro": null,
    "lat": -21.765074,
    "lng": -52.11114,
    "city_source": "brasilapi",
    "geo_source": "brasilapi",
    "updated_at": "2026-02-23T23:49:06.205Z"
  },
  {
    "cep": "20510230",
    "uf": "RJ",
    "cidade": "Rio de Janeiro",
    "bairro": "Tijuca",
    "logradouro": "Rua Andrade Neves",
    "lat": -22.9311166,
    "lng": -43.2365354,
    "city_source": "brasilapi",
    "geo_source": "brasilapi",
    "updated_at": "2026-02-23T23:49:06.324Z"
  },
  {
    "cep": "20740570",
    "uf": "RJ",
    "cidade": "Rio de Janeiro",
    "bairro": "Piedade",
    "logradouro": "Rua do Tijolo",
    "lat": -22.90642,
    "lng": -43.18223,
    "city_source": "brasilapi",
    "geo_source": "open-meteo",
    "updated_at": "2026-02-23T23:49:06.561Z"
  },
  {
    "cep": "20761130",
    "uf": "RJ",
    "cidade": "Rio de Janeiro",
    "bairro": "Engenho da Rainha",
    "logradouro": "Rua Ibiapaba",
    "lat": -22.90642,
    "lng": -43.18223,
    "city_source": "brasilapi",
    "geo_source": "open-meteo",
    "updated_at": "2026-02-23T23:49:06.570Z"
  },
  {
    "cep": "20931005",
    "uf": "RJ",
    "cidade": "Rio de Janeiro",
    "bairro": "Caju",
    "logradouro": "Rua Carlos Seidl",
    "lat": -22.90642,
    "lng": -43.18223,
    "city_source": "brasilapi",
    "geo_source": "open-meteo",
    "updated_at": "2026-02-23T23:49:06.696Z"
  },
  {
    "cep": "21830315",
    "uf": "RJ",
    "cidade": "Rio de Janeiro",
    "bairro": "Senador Camará",
    "logradouro": "Rua Nova Escócia",
    "lat": -22.90642,
    "lng": -43.18223,
    "city_source": "brasilapi",
    "geo_source": "open-meteo",
    "updated_at": "2026-02-23T23:49:06.698Z"
  },
  {
    "cep": "21931310",
    "uf": "RJ",
    "cidade": "Rio de Janeiro",
    "bairro": "Jardim Guanabara",
    "logradouro": "Rua Breno Guimarães",
    "lat": -22.8069627,
    "lng": -43.2041835,
    "city_source": "brasilapi",
    "geo_source": "brasilapi",
    "updated_at": "2026-02-23T23:49:06.748Z"
  },
  {
    "cep": "22710255",
    "uf": "RJ",
    "cidade": "Rio de Janeiro",
    "bairro": "Taquara",
    "logradouro": "Rua Mapendi",
    "lat": -22.9275996,
    "lng": -43.376502,
    "city_source": "brasilapi",
    "geo_source": "brasilapi",
    "updated_at": "2026-02-23T23:49:06.761Z"
  },
  {
    "cep": "22713270",
    "uf": "RJ",
    "cidade": "Rio de Janeiro",
    "bairro": "Taquara",
    "logradouro": "Rua Asa de Telha",
    "lat": -22.90642,
    "lng": -43.18223,
    "city_source": "brasilapi",
    "geo_source": "open-meteo",
    "updated_at": "2026-02-23T23:49:06.888Z"
  },
  {
    "cep": "23017250",
    "uf": "RJ",
    "cidade": "Rio de Janeiro",
    "bairro": "Campo Grande",
    "logradouro": "Estrada do Cabuçu",
    "lat": -22.9193563,
    "lng": -43.5300447,
    "city_source": "brasilapi",
    "geo_source": "brasilapi",
    "updated_at": "2026-02-23T23:49:06.890Z"
  },
  {
    "cep": "23032410",
    "uf": "RJ",
    "cidade": "Rio de Janeiro",
    "bairro": "Guaratiba",
    "logradouro": "Rua Joaquim Barradas",
    "lat": -22.90642,
    "lng": -43.18223,
    "city_source": "brasilapi",
    "geo_source": "open-meteo",
    "updated_at": "2026-02-23T23:49:06.939Z"
  },
  {
    "cep": "23032770",
    "uf": "RJ",
    "cidade": "Rio de Janeiro",
    "bairro": "Guaratiba",
    "logradouro": "Rua Tucurui",
    "lat": -22.90642,
    "lng": -43.18223,
    "city_source": "brasilapi",
    "geo_source": "open-meteo",
    "updated_at": "2026-02-23T23:49:06.975Z"
  },
  {
    "cep": "23051390",
    "uf": null,
    "cidade": null,
    "bairro": null,
    "logradouro": null,
    "lat": null,
    "lng": null,
    "city_source": null,
    "geo_source": null,
    "updated_at": "2026-02-23T23:49:38.822Z"
  },
  {
    "cep": "23070310",
    "uf": "RJ",
    "cidade": "Rio de Janeiro",
    "bairro": "Campo Grande",
    "logradouro": "Rua Capitólio",
    "lat": -22.8975012,
    "lng": -43.5772628,
    "city_source": "brasilapi",
    "geo_source": "brasilapi",
    "updated_at": "2026-02-23T23:49:07.075Z"
  },
  {
    "cep": "23090615",
    "uf": "RJ",
    "cidade": "Rio de Janeiro",
    "bairro": "Campo Grande",
    "logradouro": "Rua Daniel Viola",
    "lat": -22.90642,
    "lng": -43.18223,
    "city_source": "brasilapi",
    "geo_source": "open-meteo",
    "updated_at": "2026-02-23T23:49:07.153Z"
  },
  {
    "cep": "24425004",
    "uf": "RJ",
    "cidade": "São Gonçalo",
    "bairro": "Neves (Neves)",
    "logradouro": "Rua José Augusto Pereira dos Santos",
    "lat": -22.8529354,
    "lng": -43.099985,
    "city_source": "brasilapi",
    "geo_source": "brasilapi",
    "updated_at": "2026-02-23T23:49:07.161Z"
  },
  {
    "cep": "25540420",
    "uf": "RJ",
    "cidade": "São João de Meriti",
    "bairro": "Vila Zulmira",
    "logradouro": "Avenida Alfredo Maurício Brum",
    "lat": -22.80389,
    "lng": -43.37222,
    "city_source": "brasilapi",
    "geo_source": "open-meteo",
    "updated_at": "2026-02-23T23:49:07.449Z"
  },
  {
    "cep": "25540490",
    "uf": "RJ",
    "cidade": "São João de Meriti",
    "bairro": "Vila Zulmira",
    "logradouro": "Travessa Jataí",
    "lat": -22.7857895,
    "lng": -43.3935899,
    "city_source": "brasilapi",
    "geo_source": "brasilapi",
    "updated_at": "2026-02-23T23:49:07.346Z"
  },
  {
    "cep": "26113365",
    "uf": "RJ",
    "cidade": "Belford Roxo",
    "bairro": "Das Graças",
    "logradouro": "Rua Projetada",
    "lat": -22.76417,
    "lng": -43.39944,
    "city_source": "brasilapi",
    "geo_source": "open-meteo",
    "updated_at": "2026-02-23T23:49:07.545Z"
  },
  {
    "cep": "28026120",
    "uf": "RJ",
    "cidade": "Campos dos Goytacazes",
    "bairro": "Parque Aurora",
    "logradouro": "Rua Ayer Campos",
    "lat": -21.7828527,
    "lng": -41.3267287,
    "city_source": "brasilapi",
    "geo_source": "brasilapi",
    "updated_at": "2026-02-23T23:49:07.536Z"
  },
  {
    "cep": "29103036",
    "uf": null,
    "cidade": null,
    "bairro": null,
    "logradouro": null,
    "lat": null,
    "lng": null,
    "city_source": null,
    "geo_source": null,
    "updated_at": "2026-02-23T23:49:39.609Z"
  },
  {
    "cep": "29104356",
    "uf": "ES",
    "cidade": "Vila Velha",
    "bairro": "Ilha dos Bentos",
    "logradouro": "Rua Macieiras",
    "lat": -20.32972,
    "lng": -40.2925,
    "city_source": "brasilapi",
    "geo_source": "open-meteo",
    "updated_at": "2026-02-23T23:49:07.925Z"
  },
  {
    "cep": "29112116",
    "uf": "ES",
    "cidade": "Vila Velha",
    "bairro": "Jardim Marilândia",
    "logradouro": "Rua Ana Merotto Stefanon",
    "lat": -20.32972,
    "lng": -40.2925,
    "city_source": "brasilapi",
    "geo_source": "open-meteo",
    "updated_at": "2026-02-23T23:49:07.928Z"
  },
  {
    "cep": "29126120",
    "uf": "ES",
    "cidade": "Vila Velha",
    "bairro": "Riviera da Barra",
    "logradouro": "Avenida Cachoeiro de Itapemirim",
    "lat": -20.32972,
    "lng": -40.2925,
    "city_source": "brasilapi",
    "geo_source": "open-meteo",
    "updated_at": "2026-02-23T23:49:08.123Z"
  },
  {
    "cep": "29126162",
    "uf": "ES",
    "cidade": "Vila Velha",
    "bairro": "Santa Paula I",
    "logradouro": "Rua Ébano",
    "lat": -20.32972,
    "lng": -40.2925,
    "city_source": "brasilapi",
    "geo_source": "open-meteo",
    "updated_at": "2026-02-23T23:49:08.122Z"
  },
  {
    "cep": "29145402",
    "uf": "ES",
    "cidade": "Cariacica",
    "bairro": "São Francisco",
    "logradouro": "Rua Municipal",
    "lat": -20.26389,
    "lng": -40.42,
    "city_source": "brasilapi",
    "geo_source": "open-meteo",
    "updated_at": "2026-02-23T23:49:08.485Z"
  },
  {
    "cep": "29153630",
    "uf": "ES",
    "cidade": "Cariacica",
    "bairro": "Presidente Médici",
    "logradouro": "Rua Salvador Bessa",
    "lat": -20.26389,
    "lng": -40.42,
    "city_source": "brasilapi",
    "geo_source": "open-meteo",
    "updated_at": "2026-02-23T23:49:08.490Z"
  },
  {
    "cep": "29173702",
    "uf": "ES",
    "cidade": "Serra",
    "bairro": "Praia de Capuba",
    "logradouro": "Rua Porto Alegre",
    "lat": -20.12861,
    "lng": -40.30778,
    "city_source": "brasilapi",
    "geo_source": "open-meteo",
    "updated_at": "2026-02-23T23:49:08.886Z"
  },
  {
    "cep": "29314814",
    "uf": "ES",
    "cidade": "Cachoeiro de Itapemirim",
    "bairro": "Monte Belo",
    "logradouro": "Rua Nairton Pinto",
    "lat": -20.84889,
    "lng": -41.11278,
    "city_source": "brasilapi",
    "geo_source": "open-meteo",
    "updated_at": "2026-02-23T23:49:08.872Z"
  },
  {
    "cep": "29345000",
    "uf": "ES",
    "cidade": "Marataízes",
    "bairro": null,
    "logradouro": null,
    "lat": -21.04333,
    "lng": -40.82444,
    "city_source": "brasilapi",
    "geo_source": "open-meteo",
    "updated_at": "2026-02-23T23:49:09.253Z"
  },
  {
    "cep": "29375000",
    "uf": "ES",
    "cidade": "Venda Nova do Imigrante",
    "bairro": null,
    "logradouro": null,
    "lat": -20.32693,
    "lng": -41.13427,
    "city_source": "brasilapi",
    "geo_source": "open-meteo",
    "updated_at": "2026-02-23T23:49:09.251Z"
  },
  {
    "cep": "29967000",
    "uf": "ES",
    "cidade": "Conceição da Barra",
    "bairro": "Braço do Rio",
    "logradouro": null,
    "lat": -18.59333,
    "lng": -39.73222,
    "city_source": "brasilapi",
    "geo_source": "open-meteo",
    "updated_at": "2026-02-23T23:49:09.632Z"
  },
  {
    "cep": "32809546",
    "uf": "MG",
    "cidade": "Esmeraldas",
    "bairro": "São Francisco de Assis",
    "logradouro": "Rua Bela Vista",
    "lat": -19.7625,
    "lng": -44.31389,
    "city_source": "brasilapi",
    "geo_source": "open-meteo",
    "updated_at": "2026-02-23T23:49:09.638Z"
  },
  {
    "cep": "33943010",
    "uf": "MG",
    "cidade": "Ribeirão das Neves",
    "bairro": "Fortaleza (Justinópolis)",
    "logradouro": "Rua Um",
    "lat": -19.76694,
    "lng": -44.08667,
    "city_source": "brasilapi",
    "geo_source": "open-meteo",
    "updated_at": "2026-02-23T23:49:10.008Z"
  },
  {
    "cep": "35162450",
    "uf": "MG",
    "cidade": "Ipatinga",
    "bairro": "Limoeiro",
    "logradouro": "Avenida José Anatólio Barbosa",
    "lat": -19.4457672,
    "lng": -42.5906702,
    "city_source": "brasilapi",
    "geo_source": "brasilapi",
    "updated_at": "2026-02-23T23:49:09.834Z"
  },
  {
    "cep": "35162474",
    "uf": "MG",
    "cidade": "Ipatinga",
    "bairro": "Barra Alegre",
    "logradouro": "Avenida Francisco Rodrigues",
    "lat": -19.4300247,
    "lng": -42.5946232,
    "city_source": "brasilapi",
    "geo_source": "brasilapi",
    "updated_at": "2026-02-23T23:49:10.025Z"
  },
  {
    "cep": "35162528",
    "uf": "MG",
    "cidade": "Ipatinga",
    "bairro": "Vila Celeste",
    "logradouro": "Rua Mineirinho",
    "lat": -19.4527107,
    "lng": -42.5690873,
    "city_source": "brasilapi",
    "geo_source": "brasilapi",
    "updated_at": "2026-02-23T23:49:10.197Z"
  },
  {
    "cep": "35162861",
    "uf": "MG",
    "cidade": "Ipatinga",
    "bairro": "Chácaras Madalena",
    "logradouro": "Rua Mil Folhas",
    "lat": -19.4515328,
    "lng": -42.575263,
    "city_source": "brasilapi",
    "geo_source": "brasilapi",
    "updated_at": "2026-02-23T23:49:10.208Z"
  },
  {
    "cep": "35162869",
    "uf": "MG",
    "cidade": "Ipatinga",
    "bairro": "Chácaras Madalena",
    "logradouro": "Rua Macela",
    "lat": -19.4537443,
    "lng": -42.5773125,
    "city_source": "brasilapi",
    "geo_source": "brasilapi",
    "updated_at": "2026-02-23T23:49:10.385Z"
  },
  {
    "cep": "35162884",
    "uf": "MG",
    "cidade": "Ipatinga",
    "bairro": "Barra Alegre",
    "logradouro": "Rua Quatro",
    "lat": -19.46833,
    "lng": -42.53667,
    "city_source": "brasilapi",
    "geo_source": "open-meteo",
    "updated_at": "2026-02-23T23:49:10.575Z"
  },
  {
    "cep": "35172315",
    "uf": "MG",
    "cidade": "Coronel Fabriciano",
    "bairro": "Jardim Primavera",
    "logradouro": "Rua José Alves da Silva",
    "lat": -19.51861,
    "lng": -42.62889,
    "city_source": "brasilapi",
    "geo_source": "open-meteo",
    "updated_at": "2026-02-23T23:49:10.750Z"
  },
  {
    "cep": "35302440",
    "uf": "MG",
    "cidade": "Caratinga",
    "bairro": "Zacarias",
    "logradouro": "Rua Pinheiro",
    "lat": -19.78972,
    "lng": -42.13917,
    "city_source": "brasilapi",
    "geo_source": "open-meteo",
    "updated_at": "2026-02-23T23:49:10.952Z"
  },
  {
    "cep": "35690000",
    "uf": "MG",
    "cidade": "Florestal",
    "bairro": null,
    "logradouro": null,
    "lat": -19.8878705,
    "lng": -44.4314766,
    "city_source": "brasilapi",
    "geo_source": "brasilapi",
    "updated_at": "2026-02-23T23:49:10.948Z"
  },
  {
    "cep": "35900238",
    "uf": "MG",
    "cidade": "Itabira",
    "bairro": "Quatorze de Fevereiro",
    "logradouro": "Rua Dona Modestina",
    "lat": -19.625736,
    "lng": -43.2255354,
    "city_source": "brasilapi",
    "geo_source": "brasilapi",
    "updated_at": "2026-02-23T23:49:11.147Z"
  },
  {
    "cep": "36015430",
    "uf": "MG",
    "cidade": "Juiz de Fora",
    "bairro": "Centro",
    "logradouro": "Rua Oswaldo Cruz",
    "lat": -21.7592809,
    "lng": -43.3535107,
    "city_source": "brasilapi",
    "geo_source": "brasilapi",
    "updated_at": "2026-02-23T23:49:11.144Z"
  },
  {
    "cep": "36037010",
    "uf": "MG",
    "cidade": "Juiz de Fora",
    "bairro": "São Pedro",
    "logradouro": "Rua Aristóteles Braga",
    "lat": -21.76417,
    "lng": -43.35028,
    "city_source": "brasilapi",
    "geo_source": "open-meteo",
    "updated_at": "2026-02-23T23:49:11.518Z"
  },
  {
    "cep": "37130017",
    "uf": "MG",
    "cidade": "Alfenas",
    "bairro": "Centro",
    "logradouro": "Rua Afonso Arinos",
    "lat": -21.4229465,
    "lng": -45.9513352,
    "city_source": "brasilapi",
    "geo_source": "brasilapi",
    "updated_at": "2026-02-23T23:49:11.328Z"
  },
  {
    "cep": "39445251",
    "uf": "MG",
    "cidade": "Janaúba",
    "bairro": "Saudade",
    "logradouro": "Rua Dalva da Costa Brito",
    "lat": -15.8025,
    "lng": -43.30889,
    "city_source": "brasilapi",
    "geo_source": "open-meteo",
    "updated_at": "2026-02-23T23:49:11.722Z"
  },
  {
    "cep": "39650000",
    "uf": "MG",
    "cidade": "Minas Novas",
    "bairro": null,
    "logradouro": null,
    "lat": -17.2174708,
    "lng": -42.5948332,
    "city_source": "brasilapi",
    "geo_source": "brasilapi",
    "updated_at": "2026-02-23T23:49:11.713Z"
  },
  {
    "cep": "39800224",
    "uf": "MG",
    "cidade": "Teófilo Otoni",
    "bairro": "Joaquim Pedrosa",
    "logradouro": "Avenida Sidônio Otoni",
    "lat": -17.8519588,
    "lng": -41.5108464,
    "city_source": "brasilapi",
    "geo_source": "brasilapi",
    "updated_at": "2026-02-23T23:49:11.919Z"
  },
  {
    "cep": "39860000",
    "uf": "MG",
    "cidade": "Nanuque",
    "bairro": null,
    "logradouro": null,
    "lat": -17.8393915,
    "lng": -40.3494631,
    "city_source": "brasilapi",
    "geo_source": "brasilapi",
    "updated_at": "2026-02-23T23:49:11.910Z"
  },
  {
    "cep": "40285505",
    "uf": "BA",
    "cidade": "Salvador",
    "bairro": "Brotas",
    "logradouro": "Rua Jardim Madalena",
    "lat": -12.97563,
    "lng": -38.49096,
    "city_source": "brasilapi",
    "geo_source": "open-meteo",
    "updated_at": "2026-02-23T23:49:12.277Z"
  },
  {
    "cep": "40415285",
    "uf": "BA",
    "cidade": "Salvador",
    "bairro": "Bonfim",
    "logradouro": "Rua Travasso de Fora",
    "lat": -12.9234053,
    "lng": -38.5038653,
    "city_source": "brasilapi",
    "geo_source": "brasilapi",
    "updated_at": "2026-02-23T23:49:12.114Z"
  },
  {
    "cep": "40435340",
    "uf": "BA",
    "cidade": "Salvador",
    "bairro": "Massaranduba",
    "logradouro": "Travessa São Francisco",
    "lat": -12.924845,
    "lng": -38.4937463,
    "city_source": "brasilapi",
    "geo_source": "brasilapi",
    "updated_at": "2026-02-23T23:49:12.306Z"
  },
  {
    "cep": "40471300",
    "uf": "BA",
    "cidade": "Salvador",
    "bairro": "Lobato",
    "logradouro": "Rua Marciano Porcino",
    "lat": -12.97563,
    "lng": -38.49096,
    "city_source": "brasilapi",
    "geo_source": "open-meteo",
    "updated_at": "2026-02-23T23:49:12.471Z"
  },
  {
    "cep": "40484490",
    "uf": "BA",
    "cidade": "Salvador",
    "bairro": "Alto do Cabrito",
    "logradouro": "Rua Santa Helena",
    "lat": -12.97563,
    "lng": -38.49096,
    "city_source": "brasilapi",
    "geo_source": "open-meteo",
    "updated_at": "2026-02-23T23:49:12.502Z"
  },
  {
    "cep": "40715760",
    "uf": "BA",
    "cidade": "Salvador",
    "bairro": "Itacaranha",
    "logradouro": "Rua São Félix",
    "lat": -12.97563,
    "lng": -38.49096,
    "city_source": "brasilapi",
    "geo_source": "open-meteo",
    "updated_at": "2026-02-23T23:49:12.660Z"
  },
  {
    "cep": "41180190",
    "uf": "BA",
    "cidade": "Salvador",
    "bairro": "Saboeiro",
    "logradouro": "Rua Vila Joaquim",
    "lat": -12.97563,
    "lng": -38.49096,
    "city_source": "brasilapi",
    "geo_source": "open-meteo",
    "updated_at": "2026-02-23T23:49:12.685Z"
  },
  {
    "cep": "41211555",
    "uf": "BA",
    "cidade": "Salvador",
    "bairro": "Arenoso",
    "logradouro": "1ª Travessa Rosalvo Dias de Jesus",
    "lat": -12.97563,
    "lng": -38.49096,
    "city_source": "brasilapi",
    "geo_source": "open-meteo",
    "updated_at": "2026-02-23T23:49:12.868Z"
  },
  {
    "cep": "41275148",
    "uf": "BA",
    "cidade": "Salvador",
    "bairro": "Campinas de Pirajá",
    "logradouro": "Rua Luan Braga",
    "lat": -12.97563,
    "lng": -38.49096,
    "city_source": "brasilapi",
    "geo_source": "open-meteo",
    "updated_at": "2026-02-23T23:49:12.872Z"
  },
  {
    "cep": "41336030",
    "uf": "BA",
    "cidade": "Salvador",
    "bairro": "Cajazeiras VI",
    "logradouro": "Rua Jornalista Marcelo Nonato",
    "lat": -12.97563,
    "lng": -38.49096,
    "city_source": "brasilapi",
    "geo_source": "open-meteo",
    "updated_at": "2026-02-23T23:49:13.072Z"
  },
  {
    "cep": "42801901",
    "uf": "BA",
    "cidade": "Camaçari",
    "bairro": "Parque Nascente do Rio Capivara",
    "logradouro": "Rua Marlim Azul",
    "lat": -12.6975,
    "lng": -38.32417,
    "city_source": "brasilapi",
    "geo_source": "open-meteo",
    "updated_at": "2026-02-23T23:49:13.254Z"
  },
  {
    "cep": "42807103",
    "uf": "BA",
    "cidade": "Camaçari",
    "bairro": "Gleba C",
    "logradouro": "Caminho do Livramento",
    "lat": -12.6975,
    "lng": -38.32417,
    "city_source": "brasilapi",
    "geo_source": "open-meteo",
    "updated_at": "2026-02-23T23:49:13.264Z"
  },
  {
    "cep": "42825016",
    "uf": "BA",
    "cidade": "Camaçari",
    "bairro": "Catu de Abrantes (Abrantes)",
    "logradouro": "Rua Sucupió",
    "lat": -12.6975,
    "lng": -38.32417,
    "city_source": "brasilapi",
    "geo_source": "open-meteo",
    "updated_at": "2026-02-23T23:49:13.452Z"
  },
  {
    "cep": "42840000",
    "uf": null,
    "cidade": null,
    "bairro": null,
    "logradouro": null,
    "lat": null,
    "lng": null,
    "city_source": null,
    "geo_source": null,
    "updated_at": "2026-02-23T23:49:14.679Z"
  },
  {
    "cep": "42850000",
    "uf": "BA",
    "cidade": "Dias D'Ávila",
    "bairro": null,
    "logradouro": null,
    "lat": -12.6107233,
    "lng": -38.3028518,
    "city_source": "brasilapi",
    "geo_source": "brasilapi",
    "updated_at": "2026-02-23T23:49:13.639Z"
  },
  {
    "cep": "43805625",
    "uf": "BA",
    "cidade": "Candeias",
    "bairro": "Malemba",
    "logradouro": "Loteamento Santa Cruz",
    "lat": -13.85,
    "lng": -39.38333,
    "city_source": "brasilapi",
    "geo_source": "open-meteo",
    "updated_at": "2026-02-23T23:49:14.008Z"
  },
  {
    "cep": "43820255",
    "uf": "BA",
    "cidade": "Candeias",
    "bairro": "Sarandy",
    "logradouro": "Rua Tomé de Souza",
    "lat": -13.85,
    "lng": -39.38333,
    "city_source": "brasilapi",
    "geo_source": "open-meteo",
    "updated_at": "2026-02-23T23:49:14.200Z"
  },
  {
    "cep": "43900000",
    "uf": "BA",
    "cidade": "São Francisco do Conde",
    "bairro": null,
    "logradouro": null,
    "lat": -12.628108,
    "lng": -38.6811326,
    "city_source": "brasilapi",
    "geo_source": "brasilapi",
    "updated_at": "2026-02-23T23:49:14.390Z"
  },
  {
    "cep": "44007198",
    "uf": "BA",
    "cidade": "Feira de Santana",
    "bairro": "Pedra do Descanso",
    "logradouro": "Rua Magnólia Carvalho",
    "lat": -12.26667,
    "lng": -38.96667,
    "city_source": "brasilapi",
    "geo_source": "open-meteo",
    "updated_at": "2026-02-23T23:49:14.760Z"
  },
  {
    "cep": "44066644",
    "uf": "BA",
    "cidade": "Feira de Santana",
    "bairro": "Conceição",
    "logradouro": "Rua Mário Cézar",
    "lat": -12.26667,
    "lng": -38.96667,
    "city_source": "brasilapi",
    "geo_source": "open-meteo",
    "updated_at": "2026-02-23T23:49:14.876Z"
  },
  {
    "cep": "44400000",
    "uf": "BA",
    "cidade": "Nazaré",
    "bairro": null,
    "logradouro": null,
    "lat": -13.0345586,
    "lng": -39.0062515,
    "city_source": "brasilapi",
    "geo_source": "brasilapi",
    "updated_at": "2026-02-23T23:49:14.958Z"
  },
  {
    "cep": "44470000",
    "uf": "BA",
    "cidade": "Vera Cruz",
    "bairro": null,
    "logradouro": null,
    "lat": -12.9608153,
    "lng": -38.6099216,
    "city_source": "brasilapi",
    "geo_source": "brasilapi",
    "updated_at": "2026-02-23T23:49:15.067Z"
  },
  {
    "cep": "44540000",
    "uf": "BA",
    "cidade": "Conceição do Almeida",
    "bairro": null,
    "logradouro": null,
    "lat": -12.77944,
    "lng": -39.17,
    "city_source": "brasilapi",
    "geo_source": "open-meteo",
    "updated_at": "2026-02-23T23:49:15.330Z"
  },
  {
    "cep": "44750000",
    "uf": "BA",
    "cidade": "Caldeirão Grande",
    "bairro": null,
    "logradouro": null,
    "lat": -12.9,
    "lng": -40.01667,
    "city_source": "brasilapi",
    "geo_source": "open-meteo",
    "updated_at": "2026-02-23T23:49:16.010Z"
  },
  {
    "cep": "44867040",
    "uf": "BA",
    "cidade": "Irecê",
    "bairro": "São José",
    "logradouro": "Avenida Guararapes",
    "lat": -11.30417,
    "lng": -41.85583,
    "city_source": "brasilapi",
    "geo_source": "open-meteo",
    "updated_at": "2026-02-23T23:49:15.703Z"
  },
  {
    "cep": "44890000",
    "uf": "BA",
    "cidade": "Canarana",
    "bairro": null,
    "logradouro": null,
    "lat": -11.68472,
    "lng": -41.76889,
    "city_source": "brasilapi",
    "geo_source": "open-meteo",
    "updated_at": "2026-02-23T23:49:16.075Z"
  },
  {
    "cep": "44920000",
    "uf": "BA",
    "cidade": "João Dourado",
    "bairro": null,
    "logradouro": null,
    "lat": -11.34484,
    "lng": -41.66317,
    "city_source": "brasilapi",
    "geo_source": "open-meteo",
    "updated_at": "2026-02-23T23:49:16.391Z"
  },
  {
    "cep": "45210376",
    "uf": "BA",
    "cidade": "Jequié",
    "bairro": "Itaigara",
    "logradouro": "Rua Professor Raimundo Fernandes da Costa",
    "lat": -13.85875,
    "lng": -40.08512,
    "city_source": "brasilapi",
    "geo_source": "open-meteo",
    "updated_at": "2026-02-23T23:49:16.449Z"
  },
  {
    "cep": "45305000",
    "uf": "BA",
    "cidade": "Elísio Medrado",
    "bairro": null,
    "logradouro": null,
    "lat": -12.9469824,
    "lng": -39.520431,
    "city_source": "brasilapi",
    "geo_source": "brasilapi",
    "updated_at": "2026-02-23T23:49:16.588Z"
  },
  {
    "cep": "45400000",
    "uf": "BA",
    "cidade": "Valença",
    "bairro": null,
    "logradouro": null,
    "lat": -13.3214013,
    "lng": -39.1070128,
    "city_source": "brasilapi",
    "geo_source": "brasilapi",
    "updated_at": "2026-02-23T23:49:16.647Z"
  },
  {
    "cep": "45928000",
    "uf": "BA",
    "cidade": "Nova Viçosa",
    "bairro": "Posto da Mata",
    "logradouro": null,
    "lat": -17.89194,
    "lng": -39.37194,
    "city_source": "brasilapi",
    "geo_source": "open-meteo",
    "updated_at": "2026-02-23T23:49:16.983Z"
  },
  {
    "cep": "46445000",
    "uf": "BA",
    "cidade": "Carinhanha",
    "bairro": null,
    "logradouro": null,
    "lat": -14.298524,
    "lng": -43.772349,
    "city_source": "brasilapi",
    "geo_source": "brasilapi",
    "updated_at": "2026-02-23T23:49:16.839Z"
  },
  {
    "cep": "47640000",
    "uf": "BA",
    "cidade": "Santa Maria da Vitória",
    "bairro": null,
    "logradouro": null,
    "lat": -13.3901477,
    "lng": -44.2013167,
    "city_source": "brasilapi",
    "geo_source": "brasilapi",
    "updated_at": "2026-02-23T23:49:17.044Z"
  },
  {
    "cep": "47819899",
    "uf": "BA",
    "cidade": "Barreiras",
    "bairro": "Área Rural de Barreiras",
    "logradouro": "Área Rural",
    "lat": -12.15278,
    "lng": -44.99,
    "city_source": "brasilapi",
    "geo_source": "open-meteo",
    "updated_at": "2026-02-23T23:49:17.366Z"
  },
  {
    "cep": "48018165",
    "uf": "BA",
    "cidade": "Alagoinhas",
    "bairro": "Terezópolis",
    "logradouro": "Rua Dom Avelar Brandão Vilela",
    "lat": -12.13556,
    "lng": -38.41917,
    "city_source": "brasilapi",
    "geo_source": "open-meteo",
    "updated_at": "2026-02-23T23:49:17.427Z"
  },
  {
    "cep": "48110000",
    "uf": "BA",
    "cidade": "Catu",
    "bairro": null,
    "logradouro": null,
    "lat": -12.351274,
    "lng": -38.379108,
    "city_source": "brasilapi",
    "geo_source": "brasilapi",
    "updated_at": "2026-02-23T23:49:17.564Z"
  },
  {
    "cep": "48120000",
    "uf": "BA",
    "cidade": "Pojuca",
    "bairro": null,
    "logradouro": null,
    "lat": -12.4260268,
    "lng": -38.3266573,
    "city_source": "brasilapi",
    "geo_source": "brasilapi",
    "updated_at": "2026-02-23T23:49:17.626Z"
  },
  {
    "cep": "48170000",
    "uf": "BA",
    "cidade": "Água Fria",
    "bairro": null,
    "logradouro": null,
    "lat": -23.35611,
    "lng": -46.87694,
    "city_source": "brasilapi",
    "geo_source": "open-meteo",
    "updated_at": "2026-02-23T23:49:17.929Z"
  },
  {
    "cep": "48400000",
    "uf": "BA",
    "cidade": "Ribeira do Pombal",
    "bairro": null,
    "logradouro": null,
    "lat": -10.8357496,
    "lng": -38.5368506,
    "city_source": "brasilapi",
    "geo_source": "brasilapi",
    "updated_at": "2026-02-23T23:49:17.811Z"
  },
  {
    "cep": "48700000",
    "uf": "BA",
    "cidade": "Serrinha",
    "bairro": null,
    "logradouro": null,
    "lat": -11.66199,
    "lng": -39.0034021,
    "city_source": "brasilapi",
    "geo_source": "brasilapi",
    "updated_at": "2026-02-23T23:49:18.007Z"
  },
  {
    "cep": "48893322",
    "uf": "BA",
    "cidade": "Valente",
    "bairro": "José Moreira",
    "logradouro": "Rua Maria Mota Araújo",
    "lat": -11.41222,
    "lng": -39.46194,
    "city_source": "brasilapi",
    "geo_source": "open-meteo",
    "updated_at": "2026-02-23T23:49:18.299Z"
  },
  {
    "cep": "48903670",
    "uf": "BA",
    "cidade": "Juazeiro",
    "bairro": "Centro",
    "logradouro": "Rua 7 de Setembro",
    "lat": -9.4125336,
    "lng": -40.5040608,
    "city_source": "brasilapi",
    "geo_source": "brasilapi",
    "updated_at": "2026-02-23T23:49:18.200Z"
  },
  {
    "cep": "49030190",
    "uf": "SE",
    "cidade": "Aracaju",
    "bairro": "Farolândia",
    "logradouro": "Rua Coronel Manoel Ramos dos Santos",
    "lat": -10.9713414,
    "lng": -37.0719978,
    "city_source": "brasilapi",
    "geo_source": "brasilapi",
    "updated_at": "2026-02-23T23:49:18.387Z"
  },
  {
    "cep": "49035110",
    "uf": "SE",
    "cidade": "Aracaju",
    "bairro": "Atalaia",
    "logradouro": "Rua Engenheiro Francisco Manoel da Costa",
    "lat": -10.9784335,
    "lng": -37.0474908,
    "city_source": "brasilapi",
    "geo_source": "brasilapi",
    "updated_at": "2026-02-23T23:49:18.496Z"
  },
  {
    "cep": "49040690",
    "uf": "SE",
    "cidade": "Aracaju",
    "bairro": "Inácio Barbosa",
    "logradouro": "Avenida Presidente João Goulart",
    "lat": -10.91111,
    "lng": -37.07167,
    "city_source": "brasilapi",
    "geo_source": "open-meteo",
    "updated_at": "2026-02-23T23:49:18.749Z"
  },
  {
    "cep": "49048200",
    "uf": "SE",
    "cidade": "Aracaju",
    "bairro": "Luzia",
    "logradouro": "Rua João Gomes",
    "lat": -10.91111,
    "lng": -37.07167,
    "city_source": "brasilapi",
    "geo_source": "open-meteo",
    "updated_at": "2026-02-23T23:49:18.864Z"
  },
  {
    "cep": "49080420",
    "uf": "SE",
    "cidade": "Aracaju",
    "bairro": "América",
    "logradouro": "Rua Paraguai",
    "lat": -10.91111,
    "lng": -37.07167,
    "city_source": "brasilapi",
    "geo_source": "open-meteo",
    "updated_at": "2026-02-23T23:49:18.935Z"
  },
  {
    "cep": "49150099",
    "uf": "SE",
    "cidade": "Nossa Senhora do Socorro",
    "bairro": "Centro Histórico",
    "logradouro": "Rua Pedro Moreira",
    "lat": -10.8498228,
    "lng": -37.1249542,
    "city_source": "brasilapi",
    "geo_source": "brasilapi",
    "updated_at": "2026-02-23T23:49:19.059Z"
  },
  {
    "cep": "49290000",
    "uf": "SE",
    "cidade": "Itabaianinha",
    "bairro": null,
    "logradouro": null,
    "lat": -11.27389,
    "lng": -37.79,
    "city_source": "brasilapi",
    "geo_source": "open-meteo",
    "updated_at": "2026-02-23T23:49:19.304Z"
  },
  {
    "cep": "49300000",
    "uf": "SE",
    "cidade": "Tobias Barreto",
    "bairro": null,
    "logradouro": null,
    "lat": -11.1878721,
    "lng": -38.0030397,
    "city_source": "brasilapi",
    "geo_source": "brasilapi",
    "updated_at": "2026-02-23T23:49:19.262Z"
  },
  {
    "cep": "49985000",
    "uf": "SE",
    "cidade": "Santana do São Francisco",
    "bairro": null,
    "logradouro": null,
    "lat": -10.29111,
    "lng": -36.60806,
    "city_source": "brasilapi",
    "geo_source": "open-meteo",
    "updated_at": "2026-02-23T23:49:19.630Z"
  },
  {
    "cep": "53110520",
    "uf": "PE",
    "cidade": "Olinda",
    "bairro": "Salgadinho",
    "logradouro": "Rua Joaquim de Sousa Paiva",
    "lat": -8.00889,
    "lng": -34.85528,
    "city_source": "brasilapi",
    "geo_source": "open-meteo",
    "updated_at": "2026-02-23T23:49:19.674Z"
  },
  {
    "cep": "53419720",
    "uf": "PE",
    "cidade": "Paulista",
    "bairro": "Jaguarana",
    "logradouro": "Rua Cantora Carmen Miranda",
    "lat": -7.94083,
    "lng": -34.87306,
    "city_source": "brasilapi",
    "geo_source": "open-meteo",
    "updated_at": "2026-02-23T23:49:19.997Z"
  },
  {
    "cep": "53545070",
    "uf": "PE",
    "cidade": "Abreu e Lima",
    "bairro": "Caetés III",
    "logradouro": "Rua Quarenta e Oito",
    "lat": -7.91167,
    "lng": -34.90278,
    "city_source": "brasilapi",
    "geo_source": "open-meteo",
    "updated_at": "2026-02-23T23:49:20.045Z"
  },
  {
    "cep": "53620120",
    "uf": "PE",
    "cidade": "Igarassu",
    "bairro": "Encanto Igarassu",
    "logradouro": "Rua Fim de Semana",
    "lat": -7.8591749,
    "lng": -34.9059565,
    "city_source": "brasilapi",
    "geo_source": "brasilapi",
    "updated_at": "2026-02-23T23:49:20.194Z"
  },
  {
    "cep": "53625740",
    "uf": "PE",
    "cidade": "Igarassu",
    "bairro": "Triunfo",
    "logradouro": "Rua Joaquim Filgueira Galvão",
    "lat": -7.83417,
    "lng": -34.90639,
    "city_source": "brasilapi",
    "geo_source": "open-meteo",
    "updated_at": "2026-02-23T23:49:20.439Z"
  },
  {
    "cep": "54768060",
    "uf": "PE",
    "cidade": "Camaragibe",
    "bairro": "Timbí",
    "logradouro": "Rua Afonso Pena",
    "lat": -8.0181843,
    "lng": -34.9895481,
    "city_source": "brasilapi",
    "geo_source": "brasilapi",
    "updated_at": "2026-02-23T23:49:20.403Z"
  },
  {
    "cep": "54811521",
    "uf": "PE",
    "cidade": "Moreno",
    "bairro": "Alto da Maternidade",
    "logradouro": "Rua Edmundo de Sá Gouveia",
    "lat": -8.11861,
    "lng": -35.09222,
    "city_source": "brasilapi",
    "geo_source": "open-meteo",
    "updated_at": "2026-02-23T23:49:20.806Z"
  },
  {
    "cep": "55039120",
    "uf": "PE",
    "cidade": "Caruaru",
    "bairro": "Andorinha",
    "logradouro": "Avenida Manoel da Conceição Gonçalves",
    "lat": -8.28333,
    "lng": -35.97611,
    "city_source": "brasilapi",
    "geo_source": "open-meteo",
    "updated_at": "2026-02-23T23:49:20.811Z"
  },
  {
    "cep": "55270000",
    "uf": "PE",
    "cidade": "Venturosa",
    "bairro": null,
    "logradouro": null,
    "lat": -8.5765199,
    "lng": -36.876569,
    "city_source": "brasilapi",
    "geo_source": "brasilapi",
    "updated_at": "2026-02-23T23:49:21.005Z"
  },
  {
    "cep": "55370000",
    "uf": "PE",
    "cidade": "São Bento do Una",
    "bairro": null,
    "logradouro": null,
    "lat": -8.52278,
    "lng": -36.44444,
    "city_source": "brasilapi",
    "geo_source": "open-meteo",
    "updated_at": "2026-02-23T23:49:21.196Z"
  },
  {
    "cep": "55440000",
    "uf": "PE",
    "cidade": "Belém de Maria",
    "bairro": null,
    "logradouro": null,
    "lat": -8.6242497,
    "lng": -35.8388934,
    "city_source": "brasilapi",
    "geo_source": "brasilapi",
    "updated_at": "2026-02-23T23:49:21.224Z"
  },
  {
    "cep": "55601000",
    "uf": null,
    "cidade": null,
    "bairro": null,
    "logradouro": null,
    "lat": null,
    "lng": null,
    "city_source": null,
    "geo_source": null,
    "updated_at": "2026-02-23T23:49:53.200Z"
  },
  {
    "cep": "55604180",
    "uf": "PE",
    "cidade": "Vitória de Santo Antão",
    "bairro": "São Vicente de Paulo",
    "logradouro": "Rua Juarez Cândido Carneiro",
    "lat": -8.11806,
    "lng": -35.29139,
    "city_source": "brasilapi",
    "geo_source": "open-meteo",
    "updated_at": "2026-02-23T23:49:21.629Z"
  },
  {
    "cep": "55606621",
    "uf": "PE",
    "cidade": "Vitória de Santo Antão",
    "bairro": "São Vicente de Paulo",
    "logradouro": "Travessa São Vicente de Paula",
    "lat": -8.11806,
    "lng": -35.29139,
    "city_source": "brasilapi",
    "geo_source": "open-meteo",
    "updated_at": "2026-02-23T23:49:21.826Z"
  },
  {
    "cep": "55612020",
    "uf": "PE",
    "cidade": "Vitória de Santo Antão",
    "bairro": "Redenção",
    "logradouro": "Rua B",
    "lat": -8.1219579,
    "lng": -35.2831496,
    "city_source": "brasilapi",
    "geo_source": "brasilapi",
    "updated_at": "2026-02-23T23:49:22.019Z"
  },
  {
    "cep": "55612090",
    "uf": "PE",
    "cidade": "Vitória de Santo Antão",
    "bairro": "Redenção",
    "logradouro": "Rua I",
    "lat": -8.11806,
    "lng": -35.29139,
    "city_source": "brasilapi",
    "geo_source": "open-meteo",
    "updated_at": "2026-02-23T23:49:22.203Z"
  },
  {
    "cep": "55620000",
    "uf": "PE",
    "cidade": "Glória do Goitá",
    "bairro": null,
    "logradouro": null,
    "lat": -8.00167,
    "lng": -35.29278,
    "city_source": "brasilapi",
    "geo_source": "open-meteo",
    "updated_at": "2026-02-23T23:49:22.569Z"
  },
  {
    "cep": "55644086",
    "uf": "PE",
    "cidade": "Gravatá",
    "bairro": "Boa Vista",
    "logradouro": "Rua Jornalista Renato Farias",
    "lat": -8.20111,
    "lng": -35.56472,
    "city_source": "brasilapi",
    "geo_source": "open-meteo",
    "updated_at": "2026-02-23T23:49:22.970Z"
  },
  {
    "cep": "55750000",
    "uf": "PE",
    "cidade": "Surubim",
    "bairro": null,
    "logradouro": null,
    "lat": -7.8424353,
    "lng": -35.7539722,
    "city_source": "brasilapi",
    "geo_source": "brasilapi",
    "updated_at": "2026-02-23T23:49:23.166Z"
  },
  {
    "cep": "56321260",
    "uf": "PE",
    "cidade": "Petrolina",
    "bairro": "Antônio Cassimiro",
    "logradouro": "Rua Açucena",
    "lat": -9.3605321,
    "lng": -40.5083509,
    "city_source": "brasilapi",
    "geo_source": "brasilapi",
    "updated_at": "2026-02-23T23:49:23.349Z"
  },
  {
    "cep": "56820000",
    "uf": "PE",
    "cidade": "Carnaíba",
    "bairro": null,
    "logradouro": null,
    "lat": -7.805964,
    "lng": -37.7947314,
    "city_source": "brasilapi",
    "geo_source": "brasilapi",
    "updated_at": "2026-02-23T23:49:23.543Z"
  },
  {
    "cep": "56870000",
    "uf": "PE",
    "cidade": "Triunfo",
    "bairro": null,
    "logradouro": null,
    "lat": -7.8362959,
    "lng": -38.1042617,
    "city_source": "brasilapi",
    "geo_source": "brasilapi",
    "updated_at": "2026-02-23T23:49:23.732Z"
  },
  {
    "cep": "56918000",
    "uf": "PE",
    "cidade": "Serra Talhada",
    "bairro": "Luanda",
    "logradouro": null,
    "lat": -7.99194,
    "lng": -38.29833,
    "city_source": "brasilapi",
    "geo_source": "open-meteo",
    "updated_at": "2026-02-23T23:49:24.117Z"
  },
  {
    "cep": "57035060",
    "uf": "AL",
    "cidade": "Maceió",
    "bairro": "Ponta Verde",
    "logradouro": "Rua Durval Guimarães",
    "lat": -9.6620031,
    "lng": -35.7079004,
    "city_source": "brasilapi",
    "geo_source": "brasilapi",
    "updated_at": "2026-02-23T23:49:24.311Z"
  },
  {
    "cep": "57035690",
    "uf": "AL",
    "cidade": "Maceió",
    "bairro": "Jatiúca",
    "logradouro": "Avenida Hamilton de Barros Soutinho",
    "lat": -9.66583,
    "lng": -35.73528,
    "city_source": "brasilapi",
    "geo_source": "open-meteo",
    "updated_at": "2026-02-23T23:49:24.689Z"
  },
  {
    "cep": "57039710",
    "uf": "AL",
    "cidade": "Maceió",
    "bairro": "Ipioca",
    "logradouro": "Rua Djanira Bezerra de Omena",
    "lat": -9.5280179,
    "lng": -35.6059975,
    "city_source": "brasilapi",
    "geo_source": "brasilapi",
    "updated_at": "2026-02-23T23:49:24.879Z"
  },
  {
    "cep": "57045425",
    "uf": null,
    "cidade": null,
    "bairro": null,
    "logradouro": null,
    "lat": null,
    "lng": null,
    "city_source": null,
    "geo_source": null,
    "updated_at": "2026-02-23T23:49:56.635Z"
  },
  {
    "cep": "57046512",
    "uf": "AL",
    "cidade": "Maceió",
    "bairro": "Serraria",
    "logradouro": "Quadra B",
    "lat": -9.66583,
    "lng": -35.73528,
    "city_source": "brasilapi",
    "geo_source": "open-meteo",
    "updated_at": "2026-02-23T23:49:39.033Z"
  },
  {
    "cep": "57052827",
    "uf": "AL",
    "cidade": "Maceió",
    "bairro": "Gruta de Lourdes",
    "logradouro": "Rua Hugo Corrêa Paes",
    "lat": -9.6210189,
    "lng": -35.7366898,
    "city_source": "brasilapi",
    "geo_source": "brasilapi",
    "updated_at": "2026-02-23T23:49:39.227Z"
  },
  {
    "cep": "57061210",
    "uf": "AL",
    "cidade": "Maceió",
    "bairro": "Tabuleiro do Martins",
    "logradouro": "Rua Dona Maria de Lourdes Brandão",
    "lat": -9.5936889,
    "lng": -35.7633216,
    "city_source": "brasilapi",
    "geo_source": "brasilapi",
    "updated_at": "2026-02-23T23:49:39.414Z"
  },
  {
    "cep": "57062043",
    "uf": "AL",
    "cidade": "Maceió",
    "bairro": "Petrópolis",
    "logradouro": "Rua São Luiz",
    "lat": -9.5979148,
    "lng": -35.7601674,
    "city_source": "brasilapi",
    "geo_source": "brasilapi",
    "updated_at": "2026-02-23T23:49:39.609Z"
  },
  {
    "cep": "57071200",
    "uf": "AL",
    "cidade": "Maceió",
    "bairro": "Clima Bom",
    "logradouro": "Rua Petronila Rodrigues",
    "lat": -9.66583,
    "lng": -35.73528,
    "city_source": "brasilapi",
    "geo_source": "open-meteo",
    "updated_at": "2026-02-23T23:49:39.808Z"
  },
  {
    "cep": "57080040",
    "uf": "AL",
    "cidade": "Maceió",
    "bairro": "Canaã",
    "logradouro": "Rua Taquarana",
    "lat": -9.6044732,
    "lng": -35.7371882,
    "city_source": "brasilapi",
    "geo_source": "brasilapi",
    "updated_at": "2026-02-23T23:49:39.808Z"
  },
  {
    "cep": "57085064",
    "uf": "AL",
    "cidade": "Maceió",
    "bairro": "Benedito Bentes",
    "logradouro": "Rua C-60",
    "lat": -9.5607065,
    "lng": -35.723972,
    "city_source": "brasilapi",
    "geo_source": "brasilapi",
    "updated_at": "2026-02-23T23:49:39.992Z"
  },
  {
    "cep": "57160000",
    "uf": "AL",
    "cidade": "Marechal Deodoro",
    "bairro": null,
    "logradouro": null,
    "lat": -9.71028,
    "lng": -35.895,
    "city_source": "brasilapi",
    "geo_source": "open-meteo",
    "updated_at": "2026-02-23T23:49:40.700Z"
  },
  {
    "cep": "57200000",
    "uf": "AL",
    "cidade": "Penedo",
    "bairro": null,
    "logradouro": null,
    "lat": -10.29028,
    "lng": -36.58639,
    "city_source": "brasilapi",
    "geo_source": "open-meteo",
    "updated_at": "2026-02-23T23:49:40.893Z"
  },
  {
    "cep": "57246470",
    "uf": "AL",
    "cidade": "São Miguel dos Campos",
    "bairro": "Hélio Jatobá",
    "logradouro": "Quadra E-4",
    "lat": -9.78111,
    "lng": -36.09361,
    "city_source": "brasilapi",
    "geo_source": "open-meteo",
    "updated_at": "2026-02-23T23:49:41.073Z"
  },
  {
    "cep": "57260000",
    "uf": "AL",
    "cidade": "Limoeiro de Anadia",
    "bairro": null,
    "logradouro": null,
    "lat": -9.7389667,
    "lng": -36.5015847,
    "city_source": "brasilapi",
    "geo_source": "brasilapi",
    "updated_at": "2026-02-23T23:49:41.092Z"
  },
  {
    "cep": "57318450",
    "uf": "AL",
    "cidade": "Arapiraca",
    "bairro": "Bananeiras",
    "logradouro": null,
    "lat": -9.7525,
    "lng": -36.66111,
    "city_source": "brasilapi",
    "geo_source": "open-meteo",
    "updated_at": "2026-02-23T23:49:41.462Z"
  },
  {
    "cep": "57390000",
    "uf": "AL",
    "cidade": "Olho D'Água Grande",
    "bairro": null,
    "logradouro": null,
    "lat": -10.056075,
    "lng": -36.8135254,
    "city_source": "brasilapi",
    "geo_source": "brasilapi",
    "updated_at": "2026-02-23T23:49:41.278Z"
  },
  {
    "cep": "57445000",
    "uf": "AL",
    "cidade": "São José da Tapera",
    "bairro": null,
    "logradouro": null,
    "lat": -9.5584287,
    "lng": -37.3818893,
    "city_source": "brasilapi",
    "geo_source": "brasilapi",
    "updated_at": "2026-02-23T23:49:41.468Z"
  },
  {
    "cep": "57935000",
    "uf": "AL",
    "cidade": "Paripueira",
    "bairro": null,
    "logradouro": null,
    "lat": -9.465,
    "lng": -35.55167,
    "city_source": "brasilapi",
    "geo_source": "open-meteo",
    "updated_at": "2026-02-23T23:49:41.840Z"
  },
  {
    "cep": "58038323",
    "uf": "PB",
    "cidade": "João Pessoa",
    "bairro": "Manaíra",
    "logradouro": "Avenida Monteiro da Franca",
    "lat": -7.105501,
    "lng": -34.8347832,
    "city_source": "brasilapi",
    "geo_source": "brasilapi",
    "updated_at": "2026-02-23T23:49:41.657Z"
  },
  {
    "cep": "58051280",
    "uf": "PB",
    "cidade": "João Pessoa",
    "bairro": "Bancários",
    "logradouro": "Rua Bancário Aylsio José da Silva",
    "lat": -7.115,
    "lng": -34.86306,
    "city_source": "brasilapi",
    "geo_source": "open-meteo",
    "updated_at": "2026-02-23T23:49:42.024Z"
  },
  {
    "cep": "58052510",
    "uf": "PB",
    "cidade": "João Pessoa",
    "bairro": "Jardim Cidade Universitária",
    "logradouro": "Rua Bacharel Wilson Flávio Moreira Coutinho",
    "lat": -7.1580255,
    "lng": -34.8297833,
    "city_source": "brasilapi",
    "geo_source": "brasilapi",
    "updated_at": "2026-02-23T23:49:42.033Z"
  },
  {
    "cep": "58117000",
    "uf": "PB",
    "cidade": "Lagoa Seca",
    "bairro": null,
    "logradouro": null,
    "lat": -7.157099,
    "lng": -35.8542023,
    "city_source": "brasilapi",
    "geo_source": "brasilapi",
    "updated_at": "2026-02-23T23:49:42.220Z"
  },
  {
    "cep": "58119000",
    "uf": "PB",
    "cidade": "São Sebastião de Lagoa de Roça",
    "bairro": null,
    "logradouro": null,
    "lat": -7.10552,
    "lng": -35.86855,
    "city_source": "brasilapi",
    "geo_source": "open-meteo",
    "updated_at": "2026-02-23T23:49:42.399Z"
  },
  {
    "cep": "58157000",
    "uf": null,
    "cidade": null,
    "bairro": null,
    "logradouro": null,
    "lat": null,
    "lng": null,
    "city_source": null,
    "geo_source": null,
    "updated_at": "2026-02-23T23:50:14.216Z"
  },
  {
    "cep": "58175000",
    "uf": "PB",
    "cidade": "Cuité",
    "bairro": null,
    "logradouro": null,
    "lat": -6.48361,
    "lng": -36.15361,
    "city_source": "brasilapi",
    "geo_source": "open-meteo",
    "updated_at": "2026-02-23T23:49:42.778Z"
  },
  {
    "cep": "58178000",
    "uf": "PB",
    "cidade": "Nova Floresta",
    "bairro": null,
    "logradouro": null,
    "lat": -6.4554313,
    "lng": -36.2040005,
    "city_source": "brasilapi",
    "geo_source": "brasilapi",
    "updated_at": "2026-02-23T23:49:42.969Z"
  },
  {
    "cep": "58233000",
    "uf": "PB",
    "cidade": "Araruna",
    "bairro": null,
    "logradouro": null,
    "lat": -6.5321155,
    "lng": -35.7397595,
    "city_source": "brasilapi",
    "geo_source": "brasilapi",
    "updated_at": "2026-02-23T23:49:43.171Z"
  },
  {
    "cep": "58235000",
    "uf": "PB",
    "cidade": "Riachão",
    "bairro": null,
    "logradouro": null,
    "lat": -6.54085,
    "lng": -35.66095,
    "city_source": "brasilapi",
    "geo_source": "open-meteo",
    "updated_at": "2026-02-23T23:49:43.537Z"
  },
  {
    "cep": "58255000",
    "uf": "PB",
    "cidade": "Belém",
    "bairro": null,
    "logradouro": null,
    "lat": -6.69167,
    "lng": -35.53333,
    "city_source": "brasilapi",
    "geo_source": "open-meteo",
    "updated_at": "2026-02-23T23:49:43.916Z"
  },
  {
    "cep": "58288899",
    "uf": null,
    "cidade": null,
    "bairro": null,
    "logradouro": null,
    "lat": null,
    "lng": null,
    "city_source": null,
    "geo_source": null,
    "updated_at": "2026-02-23T23:50:15.883Z"
  },
  {
    "cep": "58401381",
    "uf": "PB",
    "cidade": "Campina Grande",
    "bairro": "Lauritzen",
    "logradouro": "Rua Coronel Américo Porto",
    "lat": -7.23056,
    "lng": -35.88111,
    "city_source": "brasilapi",
    "geo_source": "open-meteo",
    "updated_at": "2026-02-23T23:49:54.124Z"
  },
  {
    "cep": "58407503",
    "uf": "PB",
    "cidade": "Campina Grande",
    "bairro": "José Pinheiro",
    "logradouro": "Rua João Lélis",
    "lat": -7.2288631,
    "lng": -35.8716417,
    "city_source": "brasilapi",
    "geo_source": "brasilapi",
    "updated_at": "2026-02-23T23:49:54.319Z"
  },
  {
    "cep": "58595000",
    "uf": "PB",
    "cidade": "Caraúbas",
    "bairro": null,
    "logradouro": null,
    "lat": -7.72073,
    "lng": -36.49401,
    "city_source": "brasilapi",
    "geo_source": "open-meteo",
    "updated_at": "2026-02-23T23:49:54.699Z"
  },
  {
    "cep": "58610000",
    "uf": "PB",
    "cidade": "São José do Sabugi",
    "bairro": null,
    "logradouro": null,
    "lat": -6.77556,
    "lng": -36.79889,
    "city_source": "brasilapi",
    "geo_source": "open-meteo",
    "updated_at": "2026-02-23T23:49:55.077Z"
  },
  {
    "cep": "58703000",
    "uf": "PB",
    "cidade": "Patos",
    "bairro": "Liberdade",
    "logradouro": "Rua do Prado",
    "lat": -7.02444,
    "lng": -37.28,
    "city_source": "brasilapi",
    "geo_source": "open-meteo",
    "updated_at": "2026-02-23T23:49:55.456Z"
  },
  {
    "cep": "58735000",
    "uf": "PB",
    "cidade": "Teixeira",
    "bairro": null,
    "logradouro": null,
    "lat": -7.221036,
    "lng": -37.252477,
    "city_source": "brasilapi",
    "geo_source": "brasilapi",
    "updated_at": "2026-02-23T23:49:55.652Z"
  },
  {
    "cep": "58763000",
    "uf": "PB",
    "cidade": "Emas",
    "bairro": null,
    "logradouro": null,
    "lat": -7.10778,
    "lng": -37.71556,
    "city_source": "brasilapi",
    "geo_source": "open-meteo",
    "updated_at": "2026-02-23T23:49:56.020Z"
  },
  {
    "cep": "58925000",
    "uf": "PB",
    "cidade": "Santa Helena",
    "bairro": null,
    "logradouro": null,
    "lat": -7.09293,
    "lng": -35.14952,
    "city_source": "brasilapi",
    "geo_source": "open-meteo",
    "updated_at": "2026-02-23T23:49:56.404Z"
  },
  {
    "cep": "59104210",
    "uf": "RN",
    "cidade": "Natal",
    "bairro": "Igapó",
    "logradouro": "Rua Alvorada",
    "lat": -5.7718468,
    "lng": -35.2605897,
    "city_source": "brasilapi",
    "geo_source": "brasilapi",
    "updated_at": "2026-02-23T23:49:56.595Z"
  },
  {
    "cep": "59108120",
    "uf": "RN",
    "cidade": "Natal",
    "bairro": "Potengi",
    "logradouro": "Avenida Paulistana",
    "lat": -5.795,
    "lng": -35.20944,
    "city_source": "brasilapi",
    "geo_source": "open-meteo",
    "updated_at": "2026-02-23T23:49:56.987Z"
  },
  {
    "cep": "59133090",
    "uf": "RN",
    "cidade": "Natal",
    "bairro": "Pajuçara",
    "logradouro": "Avenida Moema Tinoco da Cunha Lima",
    "lat": -5.7371015,
    "lng": -35.2268554,
    "city_source": "brasilapi",
    "geo_source": "brasilapi",
    "updated_at": "2026-02-23T23:49:56.825Z"
  },
  {
    "cep": "59152600",
    "uf": "RN",
    "cidade": "Parnamirim",
    "bairro": "Nova Parnamirim",
    "logradouro": "Avenida Maria Lacerda Montenegro",
    "lat": -5.8892189,
    "lng": -35.2080751,
    "city_source": "brasilapi",
    "geo_source": "brasilapi",
    "updated_at": "2026-02-23T23:49:57.013Z"
  },
  {
    "cep": "59200000",
    "uf": "RN",
    "cidade": "Santa Cruz",
    "bairro": null,
    "logradouro": null,
    "lat": -6.224752,
    "lng": -36.019297,
    "city_source": "brasilapi",
    "geo_source": "brasilapi",
    "updated_at": "2026-02-23T23:49:57.213Z"
  },
  {
    "cep": "59275000",
    "uf": "RN",
    "cidade": "São José do Campestre",
    "bairro": null,
    "logradouro": null,
    "lat": -6.3148531,
    "lng": -35.7128188,
    "city_source": "brasilapi",
    "geo_source": "brasilapi",
    "updated_at": "2026-02-23T23:49:57.196Z"
  },
  {
    "cep": "59280000",
    "uf": "RN",
    "cidade": "Macaíba",
    "bairro": null,
    "logradouro": null,
    "lat": -5.85833,
    "lng": -35.35389,
    "city_source": "brasilapi",
    "geo_source": "open-meteo",
    "updated_at": "2026-02-23T23:49:57.571Z"
  },
  {
    "cep": "59280055",
    "uf": "RN",
    "cidade": "Macaíba",
    "bairro": "Fabrício Pedroza",
    "logradouro": "Rua Estevam Moura",
    "lat": -5.85833,
    "lng": -35.35389,
    "city_source": "brasilapi",
    "geo_source": "open-meteo",
    "updated_at": "2026-02-23T23:49:58.119Z"
  },
  {
    "cep": "59281720",
    "uf": "RN",
    "cidade": "Macaíba",
    "bairro": "Zona de Expansão Urbana Sul",
    "logradouro": "Rua Alameda de Santo Antônio",
    "lat": -5.85833,
    "lng": -35.35389,
    "city_source": "brasilapi",
    "geo_source": "open-meteo",
    "updated_at": "2026-02-23T23:49:57.768Z"
  },
  {
    "cep": "59288899",
    "uf": "RN",
    "cidade": "Macaíba",
    "bairro": "Área Rural de Macaíba",
    "logradouro": "Área Rural",
    "lat": -5.85833,
    "lng": -35.35389,
    "city_source": "brasilapi",
    "geo_source": "open-meteo",
    "updated_at": "2026-02-23T23:49:57.965Z"
  },
  {
    "cep": "59300000",
    "uf": "RN",
    "cidade": "Caicó",
    "bairro": null,
    "logradouro": null,
    "lat": -6.4594544,
    "lng": -37.0971911,
    "city_source": "brasilapi",
    "geo_source": "brasilapi",
    "updated_at": "2026-02-23T23:49:58.154Z"
  },
  {
    "cep": "59338000",
    "uf": "RN",
    "cidade": "Tenente Laurentino Cruz",
    "bairro": null,
    "logradouro": null,
    "lat": -6.14806,
    "lng": -36.71917,
    "city_source": "brasilapi",
    "geo_source": "open-meteo",
    "updated_at": "2026-02-23T23:49:58.491Z"
  },
  {
    "cep": "59340000",
    "uf": "RN",
    "cidade": "São Vicente",
    "bairro": null,
    "logradouro": null,
    "lat": -23.96306,
    "lng": -46.39194,
    "city_source": "brasilapi",
    "geo_source": "open-meteo",
    "updated_at": "2026-02-23T23:49:58.522Z"
  },
  {
    "cep": "59380000",
    "uf": "RN",
    "cidade": "Currais Novos",
    "bairro": null,
    "logradouro": null,
    "lat": -6.26083,
    "lng": -36.51778,
    "city_source": "brasilapi",
    "geo_source": "open-meteo",
    "updated_at": "2026-02-23T23:49:58.888Z"
  },
  {
    "cep": "59390000",
    "uf": "RN",
    "cidade": "Lagoa Nova",
    "bairro": null,
    "logradouro": null,
    "lat": -6.09401,
    "lng": -36.47219,
    "city_source": "brasilapi",
    "geo_source": "open-meteo",
    "updated_at": "2026-02-23T23:49:58.908Z"
  },
  {
    "cep": "59625631",
    "uf": "RN",
    "cidade": "Mossoró",
    "bairro": "Pintos",
    "logradouro": "Rua Genésio Caetano de Souza",
    "lat": -5.1875,
    "lng": -37.34417,
    "city_source": "brasilapi",
    "geo_source": "open-meteo",
    "updated_at": "2026-02-23T23:49:59.264Z"
  },
  {
    "cep": "59628394",
    "uf": "RN",
    "cidade": "Mossoró",
    "bairro": "Presidente Costa e Silva",
    "logradouro": "Rua Sabino Maciel Júnior",
    "lat": -5.2196642,
    "lng": -37.3186001,
    "city_source": "brasilapi",
    "geo_source": "brasilapi",
    "updated_at": "2026-02-23T23:49:59.106Z"
  },
  {
    "cep": "59631380",
    "uf": "RN",
    "cidade": "Mossoró",
    "bairro": "Planalto Treze de Maio",
    "logradouro": "Rua Farias",
    "lat": -5.2185409,
    "lng": -37.3405513,
    "city_source": "brasilapi",
    "geo_source": "brasilapi",
    "updated_at": "2026-02-23T23:49:59.304Z"
  },
  {
    "cep": "60135285",
    "uf": "CE",
    "cidade": "Fortaleza",
    "bairro": "Aldeota",
    "logradouro": "Rua Rocha Lima",
    "lat": -3.7358645,
    "lng": -38.5238802,
    "city_source": "brasilapi",
    "geo_source": "brasilapi",
    "updated_at": "2026-02-23T23:49:59.459Z"
  },
  {
    "cep": "60332490",
    "uf": "CE",
    "cidade": "Fortaleza",
    "bairro": "Barra do Ceará",
    "logradouro": "Rua do Poente",
    "lat": -3.6990661,
    "lng": -38.5809338,
    "city_source": "brasilapi",
    "geo_source": "brasilapi",
    "updated_at": "2026-02-23T23:49:59.499Z"
  },
  {
    "cep": "60411136",
    "uf": "CE",
    "cidade": "Fortaleza",
    "bairro": "Benfica",
    "logradouro": "Avenida dos Expedicionários",
    "lat": -3.7458695,
    "lng": -38.5353431,
    "city_source": "brasilapi",
    "geo_source": "brasilapi",
    "updated_at": "2026-02-23T23:49:59.658Z"
  },
  {
    "cep": "60540265",
    "uf": "CE",
    "cidade": "Fortaleza",
    "bairro": "Granja Lisboa",
    "logradouro": "Rua Doutor Fernando Augusto",
    "lat": -3.7857961,
    "lng": -38.6267504,
    "city_source": "brasilapi",
    "geo_source": "brasilapi",
    "updated_at": "2026-02-23T23:49:59.691Z"
  },
  {
    "cep": "60540604",
    "uf": "CE",
    "cidade": "Fortaleza",
    "bairro": "Granja Lisboa",
    "logradouro": "Rua Mirtes Cordeiro",
    "lat": -3.7851459,
    "lng": -38.6110692,
    "city_source": "brasilapi",
    "geo_source": "brasilapi",
    "updated_at": "2026-02-23T23:49:59.853Z"
  },
  {
    "cep": "61661152",
    "uf": "CE",
    "cidade": "Caucaia",
    "bairro": "Granja Lisboa",
    "logradouro": "Rua Mateus Lemos",
    "lat": -3.73611,
    "lng": -38.65306,
    "city_source": "brasilapi",
    "geo_source": "open-meteo",
    "updated_at": "2026-02-23T23:50:00.057Z"
  },
  {
    "cep": "61700000",
    "uf": "CE",
    "cidade": "Aquiraz",
    "bairro": null,
    "logradouro": null,
    "lat": -3.9050805,
    "lng": -38.3896098,
    "city_source": "brasilapi",
    "geo_source": "brasilapi",
    "updated_at": "2026-02-23T23:50:00.051Z"
  },
  {
    "cep": "62300000",
    "uf": "CE",
    "cidade": "Viçosa do Ceará",
    "bairro": null,
    "logradouro": null,
    "lat": -3.5667684,
    "lng": -41.091504,
    "city_source": "brasilapi",
    "geo_source": "brasilapi",
    "updated_at": "2026-02-23T23:50:00.249Z"
  },
  {
    "cep": "62540000",
    "uf": "CE",
    "cidade": "Amontada",
    "bairro": null,
    "logradouro": null,
    "lat": -3.36167,
    "lng": -39.83167,
    "city_source": "brasilapi",
    "geo_source": "open-meteo",
    "updated_at": "2026-02-23T23:50:00.429Z"
  },
  {
    "cep": "62670000",
    "uf": "CE",
    "cidade": "São Gonçalo do Amarante",
    "bairro": null,
    "logradouro": null,
    "lat": -3.60722,
    "lng": -38.96833,
    "city_source": "brasilapi",
    "geo_source": "open-meteo",
    "updated_at": "2026-02-23T23:50:00.636Z"
  },
  {
    "cep": "62736000",
    "uf": "CE",
    "cidade": "Paramoti",
    "bairro": null,
    "logradouro": null,
    "lat": -4.09694,
    "lng": -39.23944,
    "city_source": "brasilapi",
    "geo_source": "open-meteo",
    "updated_at": "2026-02-23T23:50:00.810Z"
  },
  {
    "cep": "63028400",
    "uf": "CE",
    "cidade": "Juazeiro do Norte",
    "bairro": "Timbaúba",
    "logradouro": "Rua Coronel Francisco Figueira Cruz",
    "lat": -7.21306,
    "lng": -39.31528,
    "city_source": "brasilapi",
    "geo_source": "open-meteo",
    "updated_at": "2026-02-23T23:50:01.009Z"
  },
  {
    "cep": "63033410",
    "uf": "CE",
    "cidade": "Juazeiro do Norte",
    "bairro": "José Geraldo da Cruz",
    "logradouro": "Rua Francisco Firmino de Lavor",
    "lat": -7.21306,
    "lng": -39.31528,
    "city_source": "brasilapi",
    "geo_source": "open-meteo",
    "updated_at": "2026-02-23T23:50:01.213Z"
  },
  {
    "cep": "63041100",
    "uf": "CE",
    "cidade": "Juazeiro do Norte",
    "bairro": "Triângulo",
    "logradouro": "Rua Maria Aurora da Conceição",
    "lat": -7.2290205,
    "lng": -39.3298862,
    "city_source": "brasilapi",
    "geo_source": "brasilapi",
    "updated_at": "2026-02-23T23:50:01.203Z"
  },
  {
    "cep": "63049376",
    "uf": "CE",
    "cidade": "Juazeiro do Norte",
    "bairro": "Campo Alegre",
    "logradouro": "Rua José Sitônio Rosas",
    "lat": -7.21306,
    "lng": -39.31528,
    "city_source": "brasilapi",
    "geo_source": "open-meteo",
    "updated_at": "2026-02-23T23:50:01.401Z"
  },
  {
    "cep": "63130468",
    "uf": "CE",
    "cidade": "Crato",
    "bairro": "Nossa Senhora de Fátima",
    "logradouro": "Rua Antônio Marcelino Santana",
    "lat": -7.23417,
    "lng": -39.40944,
    "city_source": "brasilapi",
    "geo_source": "open-meteo",
    "updated_at": "2026-02-23T23:50:01.692Z"
  },
  {
    "cep": "63660000",
    "uf": "CE",
    "cidade": "Tauá",
    "bairro": null,
    "logradouro": null,
    "lat": -6.0031372,
    "lng": -40.2947268,
    "city_source": "brasilapi",
    "geo_source": "brasilapi",
    "updated_at": "2026-02-23T23:50:01.585Z"
  },
  {
    "cep": "63736000",
    "uf": "CE",
    "cidade": "Crateús",
    "bairro": "Realejo",
    "logradouro": null,
    "lat": -5.17833,
    "lng": -40.6775,
    "city_source": "brasilapi",
    "geo_source": "open-meteo",
    "updated_at": "2026-02-23T23:50:02.092Z"
  },
  {
    "cep": "63740000",
    "uf": "CE",
    "cidade": "Novo Oriente",
    "bairro": null,
    "logradouro": null,
    "lat": -5.5350339,
    "lng": -40.7748902,
    "city_source": "brasilapi",
    "geo_source": "brasilapi",
    "updated_at": "2026-02-23T23:50:01.886Z"
  },
  {
    "cep": "64000380",
    "uf": "PI",
    "cidade": "Teresina",
    "bairro": "Centro",
    "logradouro": "Rua Tiradentes",
    "lat": -5.0823014,
    "lng": -42.8166747,
    "city_source": "brasilapi",
    "geo_source": "brasilapi",
    "updated_at": "2026-02-23T23:50:02.072Z"
  },
  {
    "cep": "64025565",
    "uf": "PI",
    "cidade": "Teresina",
    "bairro": "Parque Piauí",
    "logradouro": "Rua Itapuã",
    "lat": -5.08917,
    "lng": -42.80194,
    "city_source": "brasilapi",
    "geo_source": "open-meteo",
    "updated_at": "2026-02-23T23:50:02.439Z"
  },
  {
    "cep": "64027190",
    "uf": "PI",
    "cidade": "Teresina",
    "bairro": "Promorar",
    "logradouro": "Quadra Raimundo Portela",
    "lat": -5.08917,
    "lng": -42.80194,
    "city_source": "brasilapi",
    "geo_source": "open-meteo",
    "updated_at": "2026-02-23T23:50:02.471Z"
  },
  {
    "cep": "64028230",
    "uf": "PI",
    "cidade": "Teresina",
    "bairro": "Santo Antônio",
    "logradouro": "Rua Tocantins",
    "lat": -5.08917,
    "lng": -42.80194,
    "city_source": "brasilapi",
    "geo_source": "open-meteo",
    "updated_at": "2026-02-23T23:50:02.635Z"
  },
  {
    "cep": "64032122",
    "uf": "PI",
    "cidade": "Teresina",
    "bairro": "Santo Antônio",
    "logradouro": "Rua São Jorge",
    "lat": -5.08917,
    "lng": -42.80194,
    "city_source": "brasilapi",
    "geo_source": "open-meteo",
    "updated_at": "2026-02-23T23:50:02.679Z"
  },
  {
    "cep": "64039558",
    "uf": "PI",
    "cidade": "Teresina",
    "bairro": "Esplanada",
    "logradouro": "Residencial Torquato Neto IV",
    "lat": -5.08917,
    "lng": -42.80194,
    "city_source": "brasilapi",
    "geo_source": "open-meteo",
    "updated_at": "2026-02-23T23:50:02.838Z"
  },
  {
    "cep": "64048350",
    "uf": "PI",
    "cidade": "Teresina",
    "bairro": "Jóquei",
    "logradouro": "Rua General Lages",
    "lat": -5.0669058,
    "lng": -42.7866095,
    "city_source": "brasilapi",
    "geo_source": "brasilapi",
    "updated_at": "2026-02-23T23:50:02.872Z"
  },
  {
    "cep": "64066190",
    "uf": "PI",
    "cidade": "Teresina",
    "bairro": "Cidade Jardim",
    "logradouro": "Rua Luiz Martírios de Moura",
    "lat": -5.08917,
    "lng": -42.80194,
    "city_source": "brasilapi",
    "geo_source": "open-meteo",
    "updated_at": "2026-02-23T23:50:03.022Z"
  },
  {
    "cep": "64075500",
    "uf": "PI",
    "cidade": "Teresina",
    "bairro": "Beira Rio",
    "logradouro": "Rua Jacinto Rufino Macedo",
    "lat": -5.1069819,
    "lng": -42.7729844,
    "city_source": "brasilapi",
    "geo_source": "brasilapi",
    "updated_at": "2026-02-23T23:50:03.066Z"
  },
  {
    "cep": "64078474",
    "uf": "PI",
    "cidade": "Teresina",
    "bairro": "Itararé",
    "logradouro": "Quadra 342",
    "lat": -5.08917,
    "lng": -42.80194,
    "city_source": "brasilapi",
    "geo_source": "open-meteo",
    "updated_at": "2026-02-23T23:50:03.209Z"
  },
  {
    "cep": "64079255",
    "uf": "PI",
    "cidade": "Teresina",
    "bairro": "Novo Horizonte",
    "logradouro": "Rua Três",
    "lat": -5.08917,
    "lng": -42.80194,
    "city_source": "brasilapi",
    "geo_source": "open-meteo",
    "updated_at": "2026-02-23T23:50:03.260Z"
  },
  {
    "cep": "64085300",
    "uf": "PI",
    "cidade": "Teresina",
    "bairro": "São Sebastião",
    "logradouro": "Conjunto Todos os Santos",
    "lat": -5.08917,
    "lng": -42.80194,
    "city_source": "brasilapi",
    "geo_source": "open-meteo",
    "updated_at": "2026-02-23T23:50:03.394Z"
  },
  {
    "cep": "64100000",
    "uf": "PI",
    "cidade": "Barras",
    "bairro": null,
    "logradouro": null,
    "lat": -4.2446153,
    "lng": -42.2920241,
    "city_source": "brasilapi",
    "geo_source": "brasilapi",
    "updated_at": "2026-02-23T23:50:03.455Z"
  },
  {
    "cep": "64235000",
    "uf": "PI",
    "cidade": "Cocal",
    "bairro": null,
    "logradouro": null,
    "lat": -3.4691882,
    "lng": -41.555851,
    "city_source": "brasilapi",
    "geo_source": "brasilapi",
    "updated_at": "2026-02-23T23:50:03.581Z"
  },
  {
    "cep": "64255000",
    "uf": "PI",
    "cidade": "Pedro II",
    "bairro": null,
    "logradouro": null,
    "lat": -4.4252673,
    "lng": -41.458407,
    "city_source": "brasilapi",
    "geo_source": "brasilapi",
    "updated_at": "2026-02-23T23:50:03.644Z"
  },
  {
    "cep": "64260000",
    "uf": "PI",
    "cidade": "Piripiri",
    "bairro": null,
    "logradouro": null,
    "lat": -4.2732339,
    "lng": -41.7785173,
    "city_source": "brasilapi",
    "geo_source": "brasilapi",
    "updated_at": "2026-02-23T23:50:03.776Z"
  },
  {
    "cep": "64280000",
    "uf": "PI",
    "cidade": "Campo Maior",
    "bairro": null,
    "logradouro": null,
    "lat": -4.8339574,
    "lng": -42.1739786,
    "city_source": "brasilapi",
    "geo_source": "brasilapi",
    "updated_at": "2026-02-23T23:50:03.844Z"
  },
  {
    "cep": "64283000",
    "uf": "PI",
    "cidade": "Boqueirão do Piauí",
    "bairro": null,
    "logradouro": null,
    "lat": -4.48667,
    "lng": -42.07389,
    "city_source": "brasilapi",
    "geo_source": "open-meteo",
    "updated_at": "2026-02-23T23:50:04.193Z"
  },
  {
    "cep": "64330000",
    "uf": "PI",
    "cidade": "São Miguel do Tapuio",
    "bairro": null,
    "logradouro": null,
    "lat": -5.5015262,
    "lng": -41.3214276,
    "city_source": "brasilapi",
    "geo_source": "brasilapi",
    "updated_at": "2026-02-23T23:50:04.029Z"
  },
  {
    "cep": "64500000",
    "uf": "PI",
    "cidade": "Oeiras",
    "bairro": null,
    "logradouro": null,
    "lat": -7.0174887,
    "lng": -42.1314478,
    "city_source": "brasilapi",
    "geo_source": "brasilapi",
    "updated_at": "2026-02-23T23:50:04.217Z"
  },
  {
    "cep": "64565000",
    "uf": "PI",
    "cidade": "Itainópolis",
    "bairro": null,
    "logradouro": null,
    "lat": -7.4483425,
    "lng": -41.4796645,
    "city_source": "brasilapi",
    "geo_source": "brasilapi",
    "updated_at": "2026-02-23T23:50:04.388Z"
  },
  {
    "cep": "64585000",
    "uf": "PI",
    "cidade": "Simões",
    "bairro": null,
    "logradouro": null,
    "lat": -7.5970469,
    "lng": -40.8176003,
    "city_source": "brasilapi",
    "geo_source": "brasilapi",
    "updated_at": "2026-02-23T23:50:04.403Z"
  },
  {
    "cep": "64608081",
    "uf": "PI",
    "cidade": "Picos",
    "bairro": "Parque de Exposição",
    "logradouro": "Rua Santo Antonio de Lisboa",
    "lat": -7.07694,
    "lng": -41.46694,
    "city_source": "brasilapi",
    "geo_source": "open-meteo",
    "updated_at": "2026-02-23T23:50:04.760Z"
  },
  {
    "cep": "64680000",
    "uf": "PI",
    "cidade": "Padre Marcos",
    "bairro": null,
    "logradouro": null,
    "lat": -7.3534527,
    "lng": -40.9063953,
    "city_source": "brasilapi",
    "geo_source": "brasilapi",
    "updated_at": "2026-02-23T23:50:04.591Z"
  },
  {
    "cep": "64750000",
    "uf": "PI",
    "cidade": "Paulistana",
    "bairro": null,
    "logradouro": null,
    "lat": -8.1389174,
    "lng": -41.1380533,
    "city_source": "brasilapi",
    "geo_source": "brasilapi",
    "updated_at": "2026-02-23T23:50:04.791Z"
  },
  {
    "cep": "64800014",
    "uf": "PI",
    "cidade": "Floriano",
    "bairro": "Centro",
    "logradouro": "Rua Godofredo Messias",
    "lat": -6.76694,
    "lng": -43.0225,
    "city_source": "brasilapi",
    "geo_source": "open-meteo",
    "updated_at": "2026-02-23T23:50:05.151Z"
  },
  {
    "cep": "64808750",
    "uf": "PI",
    "cidade": "Floriano",
    "bairro": "Meladão",
    "logradouro": "Rua Francisco Soares",
    "lat": -6.7961703,
    "lng": -43.0456556,
    "city_source": "brasilapi",
    "geo_source": "brasilapi",
    "updated_at": "2026-02-23T23:50:04.977Z"
  },
  {
    "cep": "64900000",
    "uf": "PI",
    "cidade": "Bom Jesus",
    "bairro": null,
    "logradouro": null,
    "lat": -9.07444,
    "lng": -44.35861,
    "city_source": "brasilapi",
    "geo_source": "open-meteo",
    "updated_at": "2026-02-23T23:50:05.356Z"
  },
  {
    "cep": "64980000",
    "uf": "PI",
    "cidade": "Corrente",
    "bairro": null,
    "logradouro": null,
    "lat": -10.4401356,
    "lng": -45.1627472,
    "city_source": "brasilapi",
    "geo_source": "brasilapi",
    "updated_at": "2026-02-23T23:50:05.341Z"
  },
  {
    "cep": "65058637",
    "uf": "MA",
    "cidade": "São Luís",
    "bairro": "Santa Clara",
    "logradouro": "Rua Bom Jesus",
    "lat": -2.6601069,
    "lng": -44.2599493,
    "city_source": "brasilapi",
    "geo_source": "brasilapi",
    "updated_at": "2026-02-23T23:50:05.524Z"
  },
  {
    "cep": "65068500",
    "uf": "MA",
    "cidade": "São Luís",
    "bairro": "Turu",
    "logradouro": "Avenida Mário Andreazza",
    "lat": -2.5008798,
    "lng": -44.234704,
    "city_source": "brasilapi",
    "geo_source": "brasilapi",
    "updated_at": "2026-02-23T23:50:05.542Z"
  },
  {
    "cep": "65076764",
    "uf": "MA",
    "cidade": "São Luís",
    "bairro": "São Francisco",
    "logradouro": "1ª Travessa da Croa",
    "lat": -2.5163864,
    "lng": -44.3059497,
    "city_source": "brasilapi",
    "geo_source": "brasilapi",
    "updated_at": "2026-02-23T23:50:05.713Z"
  },
  {
    "cep": "65081440",
    "uf": "MA",
    "cidade": "São Luís",
    "bairro": "Vila Embratel",
    "logradouro": "Avenida Orquídeas",
    "lat": -2.5784811,
    "lng": -44.2990071,
    "city_source": "brasilapi",
    "geo_source": "brasilapi",
    "updated_at": "2026-02-23T23:50:05.740Z"
  },
  {
    "cep": "65082183",
    "uf": "MA",
    "cidade": "São Luís",
    "bairro": "Alto Esperança",
    "logradouro": "Rua do Areial",
    "lat": -2.52972,
    "lng": -44.30278,
    "city_source": "brasilapi",
    "geo_source": "open-meteo",
    "updated_at": "2026-02-23T23:50:06.108Z"
  },
  {
    "cep": "65110000",
    "uf": "MA",
    "cidade": "São José de Ribamar",
    "bairro": null,
    "logradouro": null,
    "lat": -2.5609115,
    "lng": -44.0559509,
    "city_source": "brasilapi",
    "geo_source": "brasilapi",
    "updated_at": "2026-02-23T23:50:05.959Z"
  },
  {
    "cep": "65113493",
    "uf": "MA",
    "cidade": "São José de Ribamar",
    "bairro": "Moropóia",
    "logradouro": "Travessa do Poço",
    "lat": -2.55572,
    "lng": -44.05992,
    "city_source": "viacep",
    "geo_source": "open-meteo",
    "updated_at": "2026-02-23T23:50:37.924Z"
  },
  {
    "cep": "65115240",
    "uf": "MA",
    "cidade": "São José de Ribamar",
    "bairro": "Riozinho",
    "logradouro": "Via de Acesso ao Village dos Pássaros",
    "lat": -2.55572,
    "lng": -44.05992,
    "city_source": "brasilapi",
    "geo_source": "open-meteo",
    "updated_at": "2026-02-23T23:50:06.553Z"
  },
  {
    "cep": "65123895",
    "uf": "MA",
    "cidade": "São José de Ribamar",
    "bairro": "Miritíua",
    "logradouro": "Rua Sampaio Corrêa",
    "lat": -2.55572,
    "lng": -44.05992,
    "city_source": "brasilapi",
    "geo_source": "open-meteo",
    "updated_at": "2026-02-23T23:50:06.743Z"
  },
  {
    "cep": "65130000",
    "uf": "MA",
    "cidade": "Paço do Lumiar",
    "bairro": null,
    "logradouro": null,
    "lat": -2.51894,
    "lng": -44.10852,
    "city_source": "brasilapi",
    "geo_source": "open-meteo",
    "updated_at": "2026-02-23T23:50:07.130Z"
  },
  {
    "cep": "65500000",
    "uf": "MA",
    "cidade": "Chapadinha",
    "bairro": null,
    "logradouro": null,
    "lat": -3.74167,
    "lng": -43.36028,
    "city_source": "brasilapi",
    "geo_source": "open-meteo",
    "updated_at": "2026-02-23T23:50:07.505Z"
  },
  {
    "cep": "65609620",
    "uf": "MA",
    "cidade": "Caxias",
    "bairro": "Salobro",
    "logradouro": "Rua do Parnazio",
    "lat": -4.85889,
    "lng": -43.35611,
    "city_source": "brasilapi",
    "geo_source": "open-meteo",
    "updated_at": "2026-02-23T23:50:07.876Z"
  },
  {
    "cep": "65620000",
    "uf": "MA",
    "cidade": "Coelho Neto",
    "bairro": null,
    "logradouro": null,
    "lat": -4.2535154,
    "lng": -43.0149321,
    "city_source": "brasilapi",
    "geo_source": "brasilapi",
    "updated_at": "2026-02-23T23:50:08.110Z"
  },
  {
    "cep": "65633220",
    "uf": "MA",
    "cidade": "Timon",
    "bairro": "Parque Alvorada",
    "logradouro": "Rua Adamastor Oliveira",
    "lat": -5.1306533,
    "lng": -42.8349674,
    "city_source": "brasilapi",
    "geo_source": "brasilapi",
    "updated_at": "2026-02-23T23:50:08.305Z"
  },
  {
    "cep": "65700000",
    "uf": "MA",
    "cidade": "Bacabal",
    "bairro": null,
    "logradouro": null,
    "lat": -4.2318132,
    "lng": -44.781167,
    "city_source": "brasilapi",
    "geo_source": "brasilapi",
    "updated_at": "2026-02-23T23:50:08.496Z"
  },
  {
    "cep": "65908009",
    "uf": "MA",
    "cidade": "Imperatriz",
    "bairro": "Vila Ipiranga",
    "logradouro": "Rua B",
    "lat": -5.52639,
    "lng": -47.49167,
    "city_source": "brasilapi",
    "geo_source": "open-meteo",
    "updated_at": "2026-02-23T23:50:08.940Z"
  },
  {
    "cep": "65919010",
    "uf": "MA",
    "cidade": "Imperatriz",
    "bairro": "Santa Rita",
    "logradouro": "Rua Padre Cícero",
    "lat": -5.5018953,
    "lng": -47.4880912,
    "city_source": "brasilapi",
    "geo_source": "brasilapi",
    "updated_at": "2026-02-23T23:50:09.137Z"
  },
  {
    "cep": "65930000",
    "uf": "MA",
    "cidade": "Açailândia",
    "bairro": null,
    "logradouro": null,
    "lat": -4.9515026,
    "lng": -47.500732,
    "city_source": "brasilapi",
    "geo_source": "brasilapi",
    "updated_at": "2026-02-23T23:50:09.327Z"
  },
  {
    "cep": "65943000",
    "uf": "MA",
    "cidade": "Formosa da Serra Negra",
    "bairro": null,
    "logradouro": null,
    "lat": -6.4437601,
    "lng": -46.1905789,
    "city_source": "brasilapi",
    "geo_source": "brasilapi",
    "updated_at": "2026-02-23T23:50:09.518Z"
  },
  {
    "cep": "66087810",
    "uf": "PA",
    "cidade": "Belém",
    "bairro": "Pedreira",
    "logradouro": "Avenida Doutor Freitas",
    "lat": -1.4230192,
    "lng": -48.4572731,
    "city_source": "brasilapi",
    "geo_source": "brasilapi",
    "updated_at": "2026-02-23T23:50:09.715Z"
  },
  {
    "cep": "66613850",
    "uf": "PA",
    "cidade": "Belém",
    "bairro": "Souza",
    "logradouro": "Passagem Tito Franco",
    "lat": -1.45583,
    "lng": -48.50444,
    "city_source": "brasilapi",
    "geo_source": "open-meteo",
    "updated_at": "2026-02-23T23:50:10.092Z"
  },
  {
    "cep": "66635110",
    "uf": "PA",
    "cidade": "Belém",
    "bairro": "Parque Verde",
    "logradouro": "Rodovia Augusto Montenegro",
    "lat": -1.3688275,
    "lng": -48.4458738,
    "city_source": "brasilapi",
    "geo_source": "brasilapi",
    "updated_at": "2026-02-23T23:50:10.284Z"
  },
  {
    "cep": "67120460",
    "uf": "PA",
    "cidade": "Ananindeua",
    "bairro": "Quarenta Horas (Coqueiro)",
    "logradouro": "Travessa Visconde do Rio Branco",
    "lat": -1.36556,
    "lng": -48.37222,
    "city_source": "brasilapi",
    "geo_source": "open-meteo",
    "updated_at": "2026-02-23T23:50:10.673Z"
  },
  {
    "cep": "68148000",
    "uf": "PA",
    "cidade": "Brasil Novo",
    "bairro": null,
    "logradouro": null,
    "lat": -3.3055853,
    "lng": -52.539198,
    "city_source": "brasilapi",
    "geo_source": "brasilapi",
    "updated_at": "2026-02-23T23:50:10.865Z"
  },
  {
    "cep": "68626727",
    "uf": "PA",
    "cidade": "Paragominas",
    "bairro": "Tropical",
    "logradouro": "Avenida Professor Manoel Pereira da Silva",
    "lat": -2.99565,
    "lng": -47.35488,
    "city_source": "brasilapi",
    "geo_source": "open-meteo",
    "updated_at": "2026-02-23T23:50:11.238Z"
  },
  {
    "cep": "68627300",
    "uf": "PA",
    "cidade": "Paragominas",
    "bairro": "Jardim Atlântico",
    "logradouro": "Rua Trindade",
    "lat": -2.99565,
    "lng": -47.35488,
    "city_source": "brasilapi",
    "geo_source": "open-meteo",
    "updated_at": "2026-02-23T23:50:11.425Z"
  },
  {
    "cep": "68628531",
    "uf": "PA",
    "cidade": "Paragominas",
    "bairro": "Promissão",
    "logradouro": "Rua Elias Nogueira",
    "lat": -2.979735,
    "lng": -47.345027,
    "city_source": "brasilapi",
    "geo_source": "brasilapi",
    "updated_at": "2026-02-23T23:50:11.613Z"
  },
  {
    "cep": "68870000",
    "uf": "PA",
    "cidade": "Soure",
    "bairro": null,
    "logradouro": null,
    "lat": -0.71667,
    "lng": -48.52333,
    "city_source": "brasilapi",
    "geo_source": "open-meteo",
    "updated_at": "2026-02-23T23:50:11.982Z"
  },
  {
    "cep": "68928337",
    "uf": "AP",
    "cidade": "Santana",
    "bairro": "Fonte Nova",
    "logradouro": "Rua Antônio Abilio Rodrigues",
    "lat": -0.03816,
    "lng": -51.17476,
    "city_source": "brasilapi",
    "geo_source": "open-meteo",
    "updated_at": "2026-02-23T23:50:12.381Z"
  },
  {
    "cep": "68980000",
    "uf": "AP",
    "cidade": "Oiapoque",
    "bairro": null,
    "logradouro": null,
    "lat": 3.84306,
    "lng": -51.835,
    "city_source": "brasilapi",
    "geo_source": "open-meteo",
    "updated_at": "2026-02-23T23:50:12.764Z"
  },
  {
    "cep": "69317102",
    "uf": "RR",
    "cidade": "Boa Vista",
    "bairro": "Santa Luzia",
    "logradouro": "Rua José Cassimiro da Silva",
    "lat": 2.81972,
    "lng": -60.67333,
    "city_source": "brasilapi",
    "geo_source": "open-meteo",
    "updated_at": "2026-02-23T23:50:13.139Z"
  },
  {
    "cep": "69317382",
    "uf": "RR",
    "cidade": "Boa Vista",
    "bairro": "Equatorial",
    "logradouro": "Rua Nordeste",
    "lat": 2.8155648,
    "lng": -60.778534,
    "city_source": "brasilapi",
    "geo_source": "brasilapi",
    "updated_at": "2026-02-23T23:50:13.332Z"
  },
  {
    "cep": "69735000",
    "uf": "AM",
    "cidade": "Presidente Figueiredo",
    "bairro": null,
    "logradouro": null,
    "lat": -2.0486359,
    "lng": -60.0236658,
    "city_source": "brasilapi",
    "geo_source": "brasilapi",
    "updated_at": "2026-02-23T23:50:13.534Z"
  },
  {
    "cep": "69909730",
    "uf": "AC",
    "cidade": "Rio Branco",
    "bairro": "Vila Acre",
    "logradouro": "Rodovia AC-40",
    "lat": -10.0536542,
    "lng": -67.7773428,
    "city_source": "brasilapi",
    "geo_source": "brasilapi",
    "updated_at": "2026-02-23T23:50:13.729Z"
  },
  {
    "cep": "69921162",
    "uf": "AC",
    "cidade": "Rio Branco",
    "bairro": "Conjunto Adalberto Sena",
    "logradouro": "Rua João Nascimento",
    "lat": -9.97472,
    "lng": -67.81,
    "city_source": "brasilapi",
    "geo_source": "open-meteo",
    "updated_at": "2026-02-23T23:50:14.106Z"
  },
  {
    "cep": "70278040",
    "uf": "DF",
    "cidade": "Brasília",
    "bairro": "Asa Sul",
    "logradouro": "Quadra SQS 412 Bloco D",
    "lat": -15.77972,
    "lng": -47.92972,
    "city_source": "brasilapi",
    "geo_source": "open-meteo",
    "updated_at": "2026-02-23T23:50:14.488Z"
  },
  {
    "cep": "71020122",
    "uf": "DF",
    "cidade": "Brasília",
    "bairro": "Guará I",
    "logradouro": "Quadra QI 3 Conjunto L",
    "lat": -15.77972,
    "lng": -47.92972,
    "city_source": "brasilapi",
    "geo_source": "open-meteo",
    "updated_at": "2026-02-23T23:50:15.127Z"
  },
  {
    "cep": "72210232",
    "uf": "DF",
    "cidade": "Brasília",
    "bairro": "Ceilândia Norte (Ceilândia)",
    "logradouro": "Quadra QNM 22 Conjunto L",
    "lat": -15.77972,
    "lng": -47.92972,
    "city_source": "brasilapi",
    "geo_source": "open-meteo",
    "updated_at": "2026-02-23T23:50:14.671Z"
  },
  {
    "cep": "72220255",
    "uf": "DF",
    "cidade": "Brasília",
    "bairro": "Ceilândia Sul (Ceilândia)",
    "logradouro": "Quadra QNN 24 Conjunto O",
    "lat": -15.77972,
    "lng": -47.92972,
    "city_source": "brasilapi",
    "geo_source": "open-meteo",
    "updated_at": "2026-02-23T23:50:14.858Z"
  },
  {
    "cep": "72231617",
    "uf": "DF",
    "cidade": "Brasília",
    "bairro": "Ceilândia Sul (Ceilândia)",
    "logradouro": "Quadra QNP 16 Conjunto Q",
    "lat": -15.77972,
    "lng": -47.92972,
    "city_source": "brasilapi",
    "geo_source": "open-meteo",
    "updated_at": "2026-02-23T23:50:15.045Z"
  },
  {
    "cep": "72583500",
    "uf": "DF",
    "cidade": "Brasília",
    "bairro": "Setor Meireles (Santa Maria)",
    "logradouro": "Avenida Monumental",
    "lat": -15.77972,
    "lng": -47.92972,
    "city_source": "brasilapi",
    "geo_source": "open-meteo",
    "updated_at": "2026-02-23T23:50:15.233Z"
  },
  {
    "cep": "72878201",
    "uf": "GO",
    "cidade": "Valparaíso de Goiás",
    "bairro": "Cidade Jardins",
    "logradouro": "Quadra QC 01 Conjunto A",
    "lat": -16.06583,
    "lng": -47.97861,
    "city_source": "brasilapi",
    "geo_source": "open-meteo",
    "updated_at": "2026-02-23T23:50:15.509Z"
  },
  {
    "cep": "74030060",
    "uf": "GO",
    "cidade": "Goiânia",
    "bairro": "Setor Central",
    "logradouro": "Rua 24",
    "lat": -16.6766761,
    "lng": -49.2512199,
    "city_source": "brasilapi",
    "geo_source": "brasilapi",
    "updated_at": "2026-02-23T23:50:15.421Z"
  },
  {
    "cep": "76861000",
    "uf": "RO",
    "cidade": "Itapuã do Oeste",
    "bairro": null,
    "logradouro": null,
    "lat": -9.189646,
    "lng": -63.1910097,
    "city_source": "brasilapi",
    "geo_source": "brasilapi",
    "updated_at": "2026-02-23T23:50:15.642Z"
  },
  {
    "cep": "77300000",
    "uf": "TO",
    "cidade": "Dianópolis",
    "bairro": null,
    "logradouro": null,
    "lat": -11.624008,
    "lng": -46.819787,
    "city_source": "brasilapi",
    "geo_source": "brasilapi",
    "updated_at": "2026-02-23T23:50:15.705Z"
  },
  {
    "cep": "77360000",
    "uf": "TO",
    "cidade": "Paranã",
    "bairro": null,
    "logradouro": null,
    "lat": -6.3,
    "lng": -38.46667,
    "city_source": "brasilapi",
    "geo_source": "open-meteo",
    "updated_at": "2026-02-23T23:50:16.053Z"
  },
  {
    "cep": "77895000",
    "uf": "TO",
    "cidade": "Nazaré",
    "bairro": null,
    "logradouro": null,
    "lat": -6.3733313,
    "lng": -47.6632702,
    "city_source": "brasilapi",
    "geo_source": "brasilapi",
    "updated_at": "2026-02-23T23:50:15.906Z"
  },
  {
    "cep": "77970000",
    "uf": "TO",
    "cidade": "Praia Norte",
    "bairro": null,
    "logradouro": null,
    "lat": -5.392812,
    "lng": -47.811144,
    "city_source": "brasilapi",
    "geo_source": "brasilapi",
    "updated_at": "2026-02-23T23:50:16.106Z"
  },
  {
    "cep": "78070000",
    "uf": "MT",
    "cidade": "Cuiabá",
    "bairro": "Jardim Petrópolis",
    "logradouro": "Avenida Fernando Correa da Costa",
    "lat": -15.59611,
    "lng": -56.09667,
    "city_source": "brasilapi",
    "geo_source": "open-meteo",
    "updated_at": "2026-02-23T23:50:16.281Z"
  },
  {
    "cep": "78099047",
    "uf": "MT",
    "cidade": "Cuiabá",
    "bairro": "Pedra 90",
    "logradouro": "Rua D",
    "lat": -15.6196764,
    "lng": -55.9524143,
    "city_source": "brasilapi",
    "geo_source": "brasilapi",
    "updated_at": "2026-02-23T23:50:16.242Z"
  },
  {
    "cep": "78304130",
    "uf": "MT",
    "cidade": "Tangará da Serra",
    "bairro": "Parque Tangará",
    "logradouro": "Rua Valdemar José da Cruz",
    "lat": -14.61944,
    "lng": -57.48583,
    "city_source": "brasilapi",
    "geo_source": "open-meteo",
    "updated_at": "2026-02-23T23:50:16.471Z"
  },
  {
    "cep": "78320000",
    "uf": "MT",
    "cidade": "Juína",
    "bairro": null,
    "logradouro": null,
    "lat": -11.4230908,
    "lng": -58.7570212,
    "city_source": "brasilapi",
    "geo_source": "brasilapi",
    "updated_at": "2026-02-23T23:50:16.465Z"
  },
  {
    "cep": "78590000",
    "uf": "MT",
    "cidade": "Paranaíta",
    "bairro": null,
    "logradouro": null,
    "lat": -9.6655602,
    "lng": -56.4758122,
    "city_source": "brasilapi",
    "geo_source": "brasilapi",
    "updated_at": "2026-02-23T23:50:16.486Z"
  },
  {
    "cep": "78714226",
    "uf": "MT",
    "cidade": "Rondonópolis",
    "bairro": "Jardim Gramado II",
    "logradouro": "Rua Maracaju",
    "lat": -16.4391704,
    "lng": -54.6347276,
    "city_source": "brasilapi",
    "geo_source": "brasilapi",
    "updated_at": "2026-02-23T23:50:16.651Z"
  },
  {
    "cep": "78890000",
    "uf": null,
    "cidade": null,
    "bairro": null,
    "logradouro": null,
    "lat": null,
    "lng": null,
    "city_source": null,
    "geo_source": null,
    "updated_at": "2026-02-23T23:50:48.487Z"
  },
  {
    "cep": "79100370",
    "uf": "MS",
    "cidade": "Campo Grande",
    "bairro": "Santo Antônio",
    "logradouro": "Rua Doutor Napoleão Laureano",
    "lat": -20.4531996,
    "lng": -54.654966,
    "city_source": "brasilapi",
    "geo_source": "brasilapi",
    "updated_at": "2026-02-23T23:50:16.682Z"
  },
  {
    "cep": "79112050",
    "uf": "MS",
    "cidade": "Campo Grande",
    "bairro": "Vila Santo Amaro",
    "logradouro": "Rua Gomes Freire",
    "lat": -20.4474835,
    "lng": -54.6491796,
    "city_source": "brasilapi",
    "geo_source": "brasilapi",
    "updated_at": "2026-02-23T23:50:16.833Z"
  },
  {
    "cep": "79311011",
    "uf": "MS",
    "cidade": "Corumbá",
    "bairro": "Cristo Redentor",
    "logradouro": "Alameda José de Barros Maciel",
    "lat": -19.0255332,
    "lng": -57.6447552,
    "city_source": "brasilapi",
    "geo_source": "brasilapi",
    "updated_at": "2026-02-23T23:50:16.868Z"
  },
  {
    "cep": "79902502",
    "uf": "MS",
    "cidade": "Ponta Porã",
    "bairro": "Coophafronteira",
    "logradouro": "Avenida Belmiro de Albuquerque",
    "lat": -22.5066221,
    "lng": -55.7230868,
    "city_source": "brasilapi",
    "geo_source": "brasilapi",
    "updated_at": "2026-02-23T23:50:17.022Z"
  },
  {
    "cep": "80215202",
    "uf": "PR",
    "cidade": "Curitiba",
    "bairro": "Prado Velho",
    "logradouro": "Rua Francisco Nunes",
    "lat": -25.4594347,
    "lng": -49.2536376,
    "city_source": "brasilapi",
    "geo_source": "brasilapi",
    "updated_at": "2026-02-23T23:50:17.056Z"
  },
  {
    "cep": "81520010",
    "uf": "PR",
    "cidade": "Curitiba",
    "bairro": "Jardim das Américas",
    "logradouro": "Rua Joaquim Augusto de Andrade",
    "lat": -25.42778,
    "lng": -49.27306,
    "city_source": "brasilapi",
    "geo_source": "open-meteo",
    "updated_at": "2026-02-23T23:50:17.394Z"
  },
  {
    "cep": "83602210",
    "uf": "PR",
    "cidade": "Campo Largo",
    "bairro": "Jardim São Vicente",
    "logradouro": "Rua Alcebíades Affonso Guimarães",
    "lat": -25.45955,
    "lng": -49.53014,
    "city_source": "brasilapi",
    "geo_source": "open-meteo",
    "updated_at": "2026-02-23T23:50:17.429Z"
  },
  {
    "cep": "85178890",
    "uf": "PR",
    "cidade": "Pinhão",
    "bairro": "Área Rural (Faxinal do Céu)",
    "logradouro": "Área Rural",
    "lat": -25.69556,
    "lng": -51.65972,
    "city_source": "brasilapi",
    "geo_source": "open-meteo",
    "updated_at": "2026-02-23T23:50:17.790Z"
  },
  {
    "cep": "85180970",
    "uf": "PR",
    "cidade": "Pinhão",
    "bairro": "Faxinal do Céu",
    "logradouro": "Rua Rio Paranapanema",
    "lat": -25.69556,
    "lng": -51.65972,
    "city_source": "brasilapi",
    "geo_source": "open-meteo",
    "updated_at": "2026-02-23T23:50:17.810Z"
  },
  {
    "cep": "85740000",
    "uf": "PR",
    "cidade": "Pérola d'Oeste",
    "bairro": null,
    "logradouro": null,
    "lat": -25.82502,
    "lng": -53.74051,
    "city_source": "brasilapi",
    "geo_source": "open-meteo",
    "updated_at": "2026-02-23T23:50:18.160Z"
  },
  {
    "cep": "85743000",
    "uf": "PR",
    "cidade": "Pérola d'Oeste",
    "bairro": "Conciolândia",
    "logradouro": null,
    "lat": -25.82502,
    "lng": -53.74051,
    "city_source": "brasilapi",
    "geo_source": "open-meteo",
    "updated_at": "2026-02-23T23:50:18.199Z"
  },
  {
    "cep": "85892045",
    "uf": "PR",
    "cidade": "Santa Helena",
    "bairro": "Centro",
    "logradouro": "Rua Argentina",
    "lat": -24.8684039,
    "lng": -54.3393028,
    "city_source": "brasilapi",
    "geo_source": "brasilapi",
    "updated_at": "2026-02-23T23:50:18.352Z"
  },
  {
    "cep": "86062000",
    "uf": "PR",
    "cidade": "Londrina",
    "bairro": "Campo Belo",
    "logradouro": "Rua Cristiano Machado",
    "lat": -23.3027711,
    "lng": -51.1810473,
    "city_source": "brasilapi",
    "geo_source": "brasilapi",
    "updated_at": "2026-02-23T23:50:18.403Z"
  },
  {
    "cep": "86070500",
    "uf": "PR",
    "cidade": "Londrina",
    "bairro": "Jardim Shangri-la A",
    "logradouro": "Rua Euclides da Cunha",
    "lat": -23.2997273,
    "lng": -51.1788989,
    "city_source": "brasilapi",
    "geo_source": "brasilapi",
    "updated_at": "2026-02-23T23:50:18.542Z"
  },
  {
    "cep": "86220000",
    "uf": "PR",
    "cidade": "Assaí",
    "bairro": null,
    "logradouro": null,
    "lat": -23.3736041,
    "lng": -50.8454929,
    "city_source": "brasilapi",
    "geo_source": "brasilapi",
    "updated_at": "2026-02-23T23:50:18.604Z"
  },
  {
    "cep": "86362503",
    "uf": "PR",
    "cidade": "Bandeirantes",
    "bairro": "Setor 1",
    "logradouro": "Rua Gregório Magalhães Trindade",
    "lat": -23.11,
    "lng": -50.3675,
    "city_source": "brasilapi",
    "geo_source": "open-meteo",
    "updated_at": "2026-02-23T23:50:18.922Z"
  },
  {
    "cep": "86370000",
    "uf": "PR",
    "cidade": "Santa Amélia",
    "bairro": null,
    "logradouro": null,
    "lat": -23.26583,
    "lng": -50.42417,
    "city_source": "brasilapi",
    "geo_source": "open-meteo",
    "updated_at": "2026-02-23T23:50:18.984Z"
  },
  {
    "cep": "86707260",
    "uf": "PR",
    "cidade": "Arapongas",
    "bairro": "Jardim Lorena",
    "logradouro": "Rua Codornix",
    "lat": -23.4219956,
    "lng": -51.4294308,
    "city_source": "brasilapi",
    "geo_source": "brasilapi",
    "updated_at": "2026-02-23T23:50:19.118Z"
  },
  {
    "cep": "86828000",
    "uf": "PR",
    "cidade": "Mauá da Serra",
    "bairro": null,
    "logradouro": null,
    "lat": -23.9045517,
    "lng": -51.2261166,
    "city_source": "brasilapi",
    "geo_source": "brasilapi",
    "updated_at": "2026-02-23T23:50:19.185Z"
  },
  {
    "cep": "86865000",
    "uf": "PR",
    "cidade": "Lidianópolis",
    "bairro": null,
    "logradouro": null,
    "lat": -24.1073464,
    "lng": -51.6525676,
    "city_source": "brasilapi",
    "geo_source": "brasilapi",
    "updated_at": "2026-02-23T23:50:19.305Z"
  },
  {
    "cep": "87010355",
    "uf": "PR",
    "cidade": "Maringá",
    "bairro": "Zona 02",
    "logradouro": "Avenida São Paulo",
    "lat": -23.4389487,
    "lng": -51.9244585,
    "city_source": "brasilapi",
    "geo_source": "brasilapi",
    "updated_at": "2026-02-23T23:50:19.391Z"
  },
  {
    "cep": "87020010",
    "uf": "PR",
    "cidade": "Maringá",
    "bairro": "Zona 07",
    "logradouro": "Avenida Prudente de Morais",
    "lat": -23.4156858,
    "lng": -51.9413528,
    "city_source": "brasilapi",
    "geo_source": "brasilapi",
    "updated_at": "2026-02-23T23:50:19.491Z"
  },
  {
    "cep": "87020440",
    "uf": "PR",
    "cidade": "Maringá",
    "bairro": "Vila Esperança",
    "logradouro": "Rua Alencar de Oliveira Paiva",
    "lat": -23.4017913,
    "lng": -51.9474469,
    "city_source": "brasilapi",
    "geo_source": "brasilapi",
    "updated_at": "2026-02-23T23:50:19.588Z"
  },
  {
    "cep": "87020600",
    "uf": "PR",
    "cidade": "Maringá",
    "bairro": "Vila Esperança",
    "logradouro": "Rua Júlio Favoretto",
    "lat": -23.4013075,
    "lng": -51.9389752,
    "city_source": "brasilapi",
    "geo_source": "brasilapi",
    "updated_at": "2026-02-23T23:50:19.678Z"
  },
  {
    "cep": "87302200",
    "uf": "PR",
    "cidade": "Campo Mourão",
    "bairro": "Centro",
    "logradouro": "Rua Prefeito Roberto Brzezinski",
    "lat": -24.04309,
    "lng": -52.37929,
    "city_source": "brasilapi",
    "geo_source": "open-meteo",
    "updated_at": "2026-02-23T23:50:19.977Z"
  },
  {
    "cep": "89012170",
    "uf": "SC",
    "cidade": "Blumenau",
    "bairro": "Victor Konder",
    "logradouro": "Rua Victor Konder",
    "lat": -26.9113011,
    "lng": -49.0754098,
    "city_source": "brasilapi",
    "geo_source": "brasilapi",
    "updated_at": "2026-02-23T23:50:19.867Z"
  },
  {
    "cep": "89012340",
    "uf": "SC",
    "cidade": "Blumenau",
    "bairro": "Boa Vista",
    "logradouro": "Rua Henrique Krohberger",
    "lat": -26.900259,
    "lng": -49.0655093,
    "city_source": "brasilapi",
    "geo_source": "brasilapi",
    "updated_at": "2026-02-23T23:50:20.070Z"
  },
  {
    "cep": "89057100",
    "uf": "SC",
    "cidade": "Blumenau",
    "bairro": "Fortaleza",
    "logradouro": "Rua Agrolândia",
    "lat": -26.91944,
    "lng": -49.06611,
    "city_source": "brasilapi",
    "geo_source": "open-meteo",
    "updated_at": "2026-02-23T23:50:20.357Z"
  },
  {
    "cep": "89172000",
    "uf": "SC",
    "cidade": "Pouso Redondo",
    "bairro": null,
    "logradouro": null,
    "lat": -27.2567443,
    "lng": -49.9331593,
    "city_source": "brasilapi",
    "geo_source": "brasilapi",
    "updated_at": "2026-02-23T23:50:20.255Z"
  },